building_name,exterior_image_url,interior_image_url,geopoint,latitude,longitude,altitude,new_bld_id,submission_uuid,meta_root_uuid
Millennium hall (LH 15),https://kf.kobotoolbox.org/api/v2/assets/aaTu2MFuhvnu5NjANoCwa5/data/708473604/attachments/attoLhd7V4CPMoR5xKuSYDY8/,https://kf.kobotoolbox.org/api/v2/assets/aaTu2MFuhvnu5NjANoCwa5/data/708473604/attachments/atti5oKGUZ5gGV2nu9C5Jg55/,-0.00398 34.604361 1530 33.56800079345703,-0.00398,34.604361,1530,500,379a66ee-eb34-41e9-b007-10d1fdb31b4a,uuid:379a66ee-eb34-41e9-b007-10d1fdb31b4a
Millennium hall,https://kf.kobotoolbox.org/api/v2/assets/aaTu2MFuhvnu5NjANoCwa5/data/708476908/attachments/attFEz4MUbLmj5YLk5FvTeeh/,https://kf.kobotoolbox.org/api/v2/assets/aaTu2MFuhvnu5NjANoCwa5/data/708476908/attachments/attiA6MzEyPyS42eFmmXv76g/,-0.005093 34.603811 1520.9000244140625 30,-0.005093,34.603811,1520.900024,501,cc2fb93e-8570-4bb9-8908-58412863ae07,uuid:cc2fb93e-8570-4bb9-8908-58412863ae07
MLH 5,https://kf.kobotoolbox.org/api/v2/assets/aaTu2MFuhvnu5NjANoCwa5/data/708479290/attachments/attbyFuoiMXb5QQLoehhAdSb/,https://kf.kobotoolbox.org/api/v2/assets/aaTu2MFuhvnu5NjANoCwa5/data/708479290/attachments/attLiKTox6w5EkYBe6DuPPj5/,-0.004452 34.603861 1524.0999755859375 56.099998474121094,-0.004452,34.603861,1524.099976,505,169ae3a5-e5af-4dc4-a170-5592048bf947,uuid:169ae3a5-e5af-4dc4-a170-5592048bf947
MLH 4,https://kf.kobotoolbox.org/api/v2/assets/aaTu2MFuhvnu5NjANoCwa5/data/708481178/attachments/attNDomE9gzNpKUFEmtydwBM/,https://kf.kobotoolbox.org/api/v2/assets/aaTu2MFuhvnu5NjANoCwa5/data/708481178/attachments/attMEHg26TvR4xdMmojXizLW/,-0.004679 34.604449 1548.005 1.7790000438690186,-0.004679,34.604449,1548.005,503,c2e78492-584a-4cac-ac9d-5939acc40e51,uuid:c2e78492-584a-4cac-ac9d-5939acc40e51
MLH 3,https://kf.kobotoolbox.org/api/v2/assets/aaTu2MFuhvnu5NjANoCwa5/data/708482873/attachments/attkjQpzfNPNkCfBewb4qgSD/,https://kf.kobotoolbox.org/api/v2/assets/aaTu2MFuhvnu5NjANoCwa5/data/708482873/attachments/attvzhGn8XVsNmNvALyt4qsC/,-0.004743 34.604488 1524.699951171875 0.9470000267028809,-0.004743,34.604488,1524.699951,504,2402817c-ddb4-436b-8efd-fcfd8ae4834a,uuid:2402817c-ddb4-436b-8efd-fcfd8ae4834a
MLH 1,https://kf.kobotoolbox.org/api/v2/assets/aaTu2MFuhvnu5NjANoCwa5/data/708486055/attachments/attqAnjySHQPhxtrYrMnYJwo/,https://kf.kobotoolbox.org/api/v2/assets/aaTu2MFuhvnu5NjANoCwa5/data/708486055/attachments/attM6uY4Pcv7vm5W76EYWVeZ/,-0.004604 34.60459 1527.0999755859375 1.2079999446868896,-0.004604,34.60459,1527.099976,505,9c611208-81ce-4076-8354-3dc198dea504,uuid:9c611208-81ce-4076-8354-3dc198dea504
Millennium hall (LH 15),https://kf.kobotoolbox.org/api/v2/assets/aaTu2MFuhvnu5NjANoCwa5/data/708505865/attachments/attDxaBMfDPH4aniJb2Laig5/,https://kf.kobotoolbox.org/api/v2/assets/aaTu2MFuhvnu5NjANoCwa5/data/708505865/attachments/attQ6EzZaVDZye2tYj3MJezJ/,-0.004299 34.604215 1524.0999755859375 1.9450000524520874,-0.004299,34.604215,1524.099976,1,7ba112c1-9d28-47c6-9fdb-43e3b6749f81,uuid:7ba112c1-9d28-47c6-9fdb-43e3b6749f81
Prof George Magoha tuition complex,https://kf.kobotoolbox.org/api/v2/assets/aaTu2MFuhvnu5NjANoCwa5/data/708515096/attachments/attH6pogYvCmAwAG3AKHRUrB/,https://kf.kobotoolbox.org/api/v2/assets/aaTu2MFuhvnu5NjANoCwa5/data/708515096/attachments/attLPWma3XgLMdy9AbHCUnjt/,-0.005795 34.603518 1519 82.5,-0.005795,34.603518,1519,101,93507110-7b01-45cc-9f95-7ca5abb33102,uuid:93507110-7b01-45cc-9f95-7ca5abb33102
Amphitheater west wing,https://kf.kobotoolbox.org/api/v2/assets/aaTu2MFuhvnu5NjANoCwa5/data/708526022/attachments/attkAHbGWBtwEy8K8XBnP9TD/,https://kf.kobotoolbox.org/api/v2/assets/aaTu2MFuhvnu5NjANoCwa5/data/708526022/attachments/attjfCDdV5HvCj4H9vDAJdT9/,-0.005868 34.602974 1519 5.085999965667725,-0.005868,34.602974,1519,102,6eb3d525-6fc9-48a6-bede-f9547acd8fcd,uuid:6eb3d525-6fc9-48a6-bede-f9547acd8fcd
Department of communication and media,https://kf.kobotoolbox.org/api/v2/assets/aaTu2MFuhvnu5NjANoCwa5/data/708526382/attachments/attFWsXcQuSAQ7B9uBXkJZK7/,,-0.004134 34.604267 1529 1.9290000200271606,-0.004134,34.604267,1529,2,cf53f6e2-2e5e-4c61-aae8-5b735774e8a8,uuid:cf53f6e2-2e5e-4c61-aae8-5b735774e8a8
School of arts and social sciences,https://kf.kobotoolbox.org/api/v2/assets/aaTu2MFuhvnu5NjANoCwa5/data/708528418/attachments/attdB3cMWDGKXfhBPHGuX6e5/,,-0.004 34.604388 1529 0.7540000081062317,-0.004,34.604388,1529,3,a2c0eb50-1ac3-476b-8ea4-e7a72e1a5586,uuid:a2c0eb50-1ac3-476b-8ea4-e7a72e1a5586
Amphitheater south wing,https://kf.kobotoolbox.org/api/v2/assets/aaTu2MFuhvnu5NjANoCwa5/data/708529427/attachments/attwsmYJJmFwqRpb3APaeUDe/,https://kf.kobotoolbox.org/api/v2/assets/aaTu2MFuhvnu5NjANoCwa5/data/708529427/attachments/attRNYxtvPidKjyuKFMPYeZW/,-0.006533 34.602936 1516.5999755859375 9.428999900817871,-0.006533,34.602936,1516.599976,103,c9e15bba-5600-4d02-9d38-0ff7d5225d9b,uuid:c9e15bba-5600-4d02-9d38-0ff7d5225d9b
Amphitheater east wing,https://kf.kobotoolbox.org/api/v2/assets/aaTu2MFuhvnu5NjANoCwa5/data/708531258/attachments/attT7Ue93jZf8CwjbWYTv8jc/,https://kf.kobotoolbox.org/api/v2/assets/aaTu2MFuhvnu5NjANoCwa5/data/708531258/attachments/attYZULLxgP4a8dt645MC7gz/,-0.006209 34.603482 1518.5999755859375 20,-0.006209,34.603482,1518.599976,104,d8897617-7aaa-49a7-9165-d9475ea57715,uuid:d8897617-7aaa-49a7-9165-d9475ea57715
Millennium,https://kf.kobotoolbox.org/api/v2/assets/aaTu2MFuhvnu5NjANoCwa5/data/708531635/attachments/att6PJkQmAwdFXSfgZhnmiUu/,https://kf.kobotoolbox.org/api/v2/assets/aaTu2MFuhvnu5NjANoCwa5/data/708531635/attachments/attCjYbbCRBpquSPa7yjq3Un/,-0.004278 34.604187 1524.0999755859375 2.052000045776367,-0.004278,34.604187,1524.099976,4,cc5133e1-615c-41ab-8528-8f42186032e5,uuid:cc5133e1-615c-41ab-8528-8f42186032e5
MLH 5,https://kf.kobotoolbox.org/api/v2/assets/aaTu2MFuhvnu5NjANoCwa5/data/708532980/attachments/attYHyPN8RCynD7nsmagicBo/,https://kf.kobotoolbox.org/api/v2/assets/aaTu2MFuhvnu5NjANoCwa5/data/708532980/attachments/attRj9gmDzkdKUCtpKDGZzwh/,-0.004662 34.604033 1524.0999755859375 3.6449999809265137,-0.004662,34.604033,1524.099976,5,8ad59dd5-ac30-44da-8441-e1dfe1057ef5,uuid:8ad59dd5-ac30-44da-8441-e1dfe1057ef5
MLH 4,https://kf.kobotoolbox.org/api/v2/assets/aaTu2MFuhvnu5NjANoCwa5/data/708533776/attachments/atthJzR5EAaRzquJat8R2RKq/,https://kf.kobotoolbox.org/api/v2/assets/aaTu2MFuhvnu5NjANoCwa5/data/708533776/attachments/atta87Vrp8io5LYWXGKz3AHT/,-0.004439 34.604306 1519.5 3.621999979019165,-0.004439,34.604306,1519.5,6,9305706a-8f0d-4578-b098-a0964f1e979f,uuid:9305706a-8f0d-4578-b098-a0964f1e979f
University library,https://kf.kobotoolbox.org/api/v2/assets/aaTu2MFuhvnu5NjANoCwa5/data/708534216/attachments/attY78LgVSpenAD9qUmAjxd7/,https://kf.kobotoolbox.org/api/v2/assets/aaTu2MFuhvnu5NjANoCwa5/data/708534216/attachments/att7YW9DZX8kANgDxfnifAii/,-0.004773 34.60379 1520.9000244140625 43.11000061035156,-0.004773,34.60379,1520.900024,105,e5d3286b-ae2e-49f5-bd13-c46c8ce84fe0,uuid:e5d3286b-ae2e-49f5-bd13-c46c8ce84fe0
MLH 3,https://kf.kobotoolbox.org/api/v2/assets/aaTu2MFuhvnu5NjANoCwa5/data/708535500/attachments/att3CjHLGghLYMpanzqPECVq/,https://kf.kobotoolbox.org/api/v2/assets/aaTu2MFuhvnu5NjANoCwa5/data/708535500/attachments/att3NGenHGfgafLSNjGyXfm8/,-0.004563 34.604609 1527.0999755859375 1.468000054359436,-0.004563,34.604609,1527.099976,7,57de52d3-9116-4b1c-aafc-ca218998a844,uuid:57de52d3-9116-4b1c-aafc-ca218998a844
MLH 1,https://kf.kobotoolbox.org/api/v2/assets/aaTu2MFuhvnu5NjANoCwa5/data/708536703/attachments/attHUXcwAQa9GhEn6g72pkQA/,https://kf.kobotoolbox.org/api/v2/assets/aaTu2MFuhvnu5NjANoCwa5/data/708536703/attachments/attc2KvcpKfQ3JiiTSdcMyTA/,-0.004743 34.604653 1527.0999755859375 1.4149999618530273,-0.004743,34.604653,1527.099976,8,97061a42-1911-4551-a832-71ce8ecfe786,uuid:97061a42-1911-4551-a832-71ce8ecfe786
Toilet,https://kf.kobotoolbox.org/api/v2/assets/aaTu2MFuhvnu5NjANoCwa5/data/708537369/attachments/attxNcfif3wcox9w2udcehKa/,https://kf.kobotoolbox.org/api/v2/assets/aaTu2MFuhvnu5NjANoCwa5/data/708537369/attachments/atteHePKNUXeiaand7fMpGrQ/,-0.004452 34.603862 1524.0999755859375 52.400001525878906,-0.004452,34.603862,1524.099976,106,9f1d64a2-4f11-4116-8f1d-a1a78efe694e,uuid:9f1d64a2-4f11-4116-8f1d-a1a78efe694e
Department of agriculture,https://kf.kobotoolbox.org/api/v2/assets/aaTu2MFuhvnu5NjANoCwa5/data/708538527/attachments/attXPvtHGGGUikvupBdGijKL/,,-0.004672 34.604749 1527.0999755859375 1.0089999437332153,-0.004672,34.604749,1527.099976,9,889fce59-db1a-49e9-9c2f-73c263d30d6f,uuid:889fce59-db1a-49e9-9c2f-73c263d30d6f
Geography department,https://kf.kobotoolbox.org/api/v2/assets/aaTu2MFuhvnu5NjANoCwa5/data/708540855/attachments/attr7qYkG8G8BPoggttXKajW/,,-0.004501 34.604908 1527.0999755859375 1.2829999923706055,-0.004501,34.604908,1527.099976,10,39ff018e-3955-4bd7-9c24-e128e7c73b0b,uuid:39ff018e-3955-4bd7-9c24-e128e7c73b0b
Temporary store,https://kf.kobotoolbox.org/api/v2/assets/aaTu2MFuhvnu5NjANoCwa5/data/708540896/attachments/attFVGUCSfiKHVrVMQQA6695/,https://kf.kobotoolbox.org/api/v2/assets/aaTu2MFuhvnu5NjANoCwa5/data/708540896/attachments/attoLoFFTKky6PA6kBnrRcwB/,-0.00446 34.603836 1524.0999755859375 92.9000015258789,-0.00446,34.603836,1524.099976,107,b394bc55-a1c4-4a40-82c3-1332a1f1de7a,uuid:b394bc55-a1c4-4a40-82c3-1332a1f1de7a
ICT department,https://kf.kobotoolbox.org/api/v2/assets/aaTu2MFuhvnu5NjANoCwa5/data/708542157/attachments/attAcDmAehKX9QczMs7rA6zR/,,-0.004521 34.60535 1528 2.430999994277954,-0.004521,34.60535,1528,11,1203b06a-a88a-4c3a-8262-e1761fb9a207,uuid:1203b06a-a88a-4c3a-8262-e1761fb9a207
Millennium 57,https://kf.kobotoolbox.org/api/v2/assets/aaTu2MFuhvnu5NjANoCwa5/data/708547790/attachments/attTTNCn5uVr7CbjduGvArUc/,,-0.004222 34.605071 1528.300048828125 16.329999923706055,-0.004222,34.605071,1528.300049,12,b4f12e36-ec92-4d83-a381-cdfbe85c83a5,uuid:b4f12e36-ec92-4d83-a381-cdfbe85c83a5
Department of sociology and anthropology,https://kf.kobotoolbox.org/api/v2/assets/aaTu2MFuhvnu5NjANoCwa5/data/708549969/attachments/attYQNmmWVXYbC9WrqscAoBK/,,-0.004144 34.604456 1528.300048828125 4.189000129699707,-0.004144,34.604456,1528.300049,13,fd2c2b7e-628e-40f9-a8ce-3f2330ecf3bc,uuid:fd2c2b7e-628e-40f9-a8ce-3f2330ecf3bc
Boadroom,https://kf.kobotoolbox.org/api/v2/assets/aaTu2MFuhvnu5NjANoCwa5/data/708550930/attachments/att4GVUUfoHjjFWiTHHVirun/,,-0.004727 34.605459 1528.4000244140625 2.1470000743865967,-0.004727,34.605459,1528.400024,14,183067ca-42ef-4edf-89dd-63107601f821,uuid:183067ca-42ef-4edf-89dd-63107601f821
Generator,https://kf.kobotoolbox.org/api/v2/assets/aaTu2MFuhvnu5NjANoCwa5/data/708554290/attachments/att5CV7RHnf7FjE7dstn4zbv/,,-0.00572 34.606688 1517.699951171875 92.9000015258789,-0.00572,34.606688,1517.699951,15,5a243c73-b46c-4646-a01c-34205170e11a,uuid:5a243c73-b46c-4646-a01c-34205170e11a
Water pump,https://kf.kobotoolbox.org/api/v2/assets/aaTu2MFuhvnu5NjANoCwa5/data/708554749/attachments/attbRQZLT7AvXZao6sEuz7Gr/,,-0.005073 34.605778 1517.699951171875 1.00600004196167,-0.005073,34.605778,1517.699951,16,9f799d80-81e0-4f69-bcad-c35df2959ed5,uuid:9f799d80-81e0-4f69-bcad-c35df2959ed5
Farms manager office,https://kf.kobotoolbox.org/api/v2/assets/aaTu2MFuhvnu5NjANoCwa5/data/708557816/attachments/attP6sAqzEwTWXqDgcHDnXHH/,https://kf.kobotoolbox.org/api/v2/assets/aaTu2MFuhvnu5NjANoCwa5/data/708557816/attachments/atttMMk6BcMHzb6F9NbYX6Li/,-0.004204 34.605028 1528.4000244140625 87.5999984741211,-0.004204,34.605028,1528.400024,108,4ae5de9b-19e3-48a3-8512-cf6f3b63e512,uuid:4ae5de9b-19e3-48a3-8512-cf6f3b63e512
Nyabundi,https://kf.kobotoolbox.org/api/v2/assets/aaTu2MFuhvnu5NjANoCwa5/data/708558349/attachments/attevEUfCqRzpjVvoNXCDPMV/,,-0.005793 34.60714 1520.5999755859375 1.7910000085830688,-0.005793,34.60714,1520.599976,17,9461a96f-23d2-41bc-95a4-227474318142,uuid:9461a96f-23d2-41bc-95a4-227474318142
Feeds store,https://kf.kobotoolbox.org/api/v2/assets/aaTu2MFuhvnu5NjANoCwa5/data/708559986/attachments/attynmjJ9uYExVxBJPdjZyaA/,https://kf.kobotoolbox.org/api/v2/assets/aaTu2MFuhvnu5NjANoCwa5/data/708559986/attachments/attP7PewtnWJfeWsBG4TCc7b/,-0.004537 34.60477 1527.0999755859375 56.099998474121094,-0.004537,34.60477,1527.099976,109,09226417-6800-48f7-8a03-737a739a7be9,uuid:09226417-6800-48f7-8a03-737a739a7be9
General sales office,https://kf.kobotoolbox.org/api/v2/assets/aaTu2MFuhvnu5NjANoCwa5/data/708561922/attachments/attRWgkVV7mcY8f2f4G5BcNF/,https://kf.kobotoolbox.org/api/v2/assets/aaTu2MFuhvnu5NjANoCwa5/data/708561922/attachments/att3NXrYswUTNMMKjr92aUKE/,-0.004249 34.605003 1528.4000244140625 45.599998474121094,-0.004249,34.605003,1528.400024,110,4f536161-e4f6-4dba-bf6b-8e112a4593d7,uuid:4f536161-e4f6-4dba-bf6b-8e112a4593d7
Nyabundi,https://kf.kobotoolbox.org/api/v2/assets/aaTu2MFuhvnu5NjANoCwa5/data/708561998/attachments/attvJaYvPLncU7am8vmWHife/,https://kf.kobotoolbox.org/api/v2/assets/aaTu2MFuhvnu5NjANoCwa5/data/708561998/attachments/attD3zXokFmgi6NW7mCEces9/,-0.006048 34.607187 1517.800048828125 2.009999990463257,-0.006048,34.607187,1517.800049,18,25befb1d-694e-40c4-8b86-0e8b4e53ea67,uuid:25befb1d-694e-40c4-8b86-0e8b4e53ea67
Nyabundi,https://kf.kobotoolbox.org/api/v2/assets/aaTu2MFuhvnu5NjANoCwa5/data/708562681/attachments/attxxED4Q4oAqMyQG2i4bzke/,https://kf.kobotoolbox.org/api/v2/assets/aaTu2MFuhvnu5NjANoCwa5/data/708562681/attachments/attgXDrrkotar8htXwas8V9k/,-0.006056 34.607273 1518 1.5779999494552612,-0.006056,34.607273,1518,19,1d6c7c25-93a4-4d50-9035-ada2e3160018,uuid:1d6c7c25-93a4-4d50-9035-ada2e3160018
Farms toilet,https://kf.kobotoolbox.org/api/v2/assets/aaTu2MFuhvnu5NjANoCwa5/data/708562817/attachments/attm9VW4soGREciZPUXyViX3/,https://kf.kobotoolbox.org/api/v2/assets/aaTu2MFuhvnu5NjANoCwa5/data/708562817/attachments/attZ9X5S65qNTqj2ekhWfRX7/,-0.004559 34.604746 1527.0999755859375 87.5999984741211,-0.004559,34.604746,1527.099976,111,01c4cf75-dabd-4655-a551-85af9038ee38,uuid:01c4cf75-dabd-4655-a551-85af9038ee38
Farms store,https://kf.kobotoolbox.org/api/v2/assets/aaTu2MFuhvnu5NjANoCwa5/data/708563974/attachments/attf5CEx5jHRLevrTTXbnjpK/,https://kf.kobotoolbox.org/api/v2/assets/aaTu2MFuhvnu5NjANoCwa5/data/708563974/attachments/attNU6R5CEw49FyXzcp5nHWz/,-0.004634 34.60469 1527.0999755859375 45.599998474121094,-0.004634,34.60469,1527.099976,112,e98da69c-56a8-4cb1-b903-f53970bef6d9,uuid:e98da69c-56a8-4cb1-b903-f53970bef6d9
Farms power house,https://kf.kobotoolbox.org/api/v2/assets/aaTu2MFuhvnu5NjANoCwa5/data/708565850/attachments/att6HPLkmgVcm2naEGUWzQCA/,https://kf.kobotoolbox.org/api/v2/assets/aaTu2MFuhvnu5NjANoCwa5/data/708565850/attachments/attoDhYdkcTBxTgRqKECzHdT/,-0.004559 34.604746 1527.0999755859375 87.5999984741211,-0.004559,34.604746,1527.099976,113,21b8813e-cbb8-46d2-987a-8922831d140c,uuid:21b8813e-cbb8-46d2-987a-8922831d140c
Farms power house 2,https://kf.kobotoolbox.org/api/v2/assets/aaTu2MFuhvnu5NjANoCwa5/data/708567367/attachments/attNX8K8svzA8E3TaEdhd6av/,https://kf.kobotoolbox.org/api/v2/assets/aaTu2MFuhvnu5NjANoCwa5/data/708567367/attachments/attN4Uh79Yrpn68ib3ZvTGGS/,-0.005069 34.605465 1527.0999755859375 8.423999786376953,-0.005069,34.605465,1527.099976,114,6ad5ac41-2a23-4604-a535-4598935860fb,uuid:6ad5ac41-2a23-4604-a535-4598935860fb
Farms poshomill,https://kf.kobotoolbox.org/api/v2/assets/aaTu2MFuhvnu5NjANoCwa5/data/708571856/attachments/attNcoSRLs79EdJy3FSu7nKC/,https://kf.kobotoolbox.org/api/v2/assets/aaTu2MFuhvnu5NjANoCwa5/data/708571856/attachments/attoaBscnzp8Vv6Fn5gnVLdk/,-0.005492 34.604992 1527.0999755859375 9.232999801635742,-0.005492,34.604992,1527.099976,115,98ed0e0d-1a2c-4b1d-b6cd-aeeeba8d8eea,uuid:98ed0e0d-1a2c-4b1d-b6cd-aeeeba8d8eea
Nyabundi,https://kf.kobotoolbox.org/api/v2/assets/aaTu2MFuhvnu5NjANoCwa5/data/708575513/attachments/attBybVz785eNZzPZVLNFWnq/,https://kf.kobotoolbox.org/api/v2/assets/aaTu2MFuhvnu5NjANoCwa5/data/708575513/attachments/attUYLXowtvasrtFfJ83nyTi/,-0.005908 34.607266 1518 4.5980000495910645,-0.005908,34.607266,1518,20,53676e72-2297-4a84-b457-eb90f4f9c2fc,uuid:53676e72-2297-4a84-b457-eb90f4f9c2fc
Nursing lab and ICT service center,https://kf.kobotoolbox.org/api/v2/assets/aaTu2MFuhvnu5NjANoCwa5/data/708577698/attachments/attRgn3tBVFeHTFw433okXEp/,,-0.002772 34.608303 1537.5999755859375 1.3600000143051147,-0.002772,34.608303,1537.599976,21,7d6b8c08-bc74-4889-83ab-fdcc2b28eb11,uuid:7d6b8c08-bc74-4889-83ab-fdcc2b28eb11
Farms cattle dip,https://kf.kobotoolbox.org/api/v2/assets/aaTu2MFuhvnu5NjANoCwa5/data/708578001/attachments/attxAnGXnJKRkUBstcSFWaVx/,https://kf.kobotoolbox.org/api/v2/assets/aaTu2MFuhvnu5NjANoCwa5/data/708578001/attachments/attSbgDcBoUmTpHp27DAePGt/,-0.006953 34.605052 1527.0999755859375 9.770999908447266,-0.006953,34.605052,1527.099976,116,6ea16941-a1e2-4f6e-8324-f50a8fa87e74,uuid:6ea16941-a1e2-4f6e-8324-f50a8fa87e74
School of Education,https://kf.kobotoolbox.org/api/v2/assets/aaTu2MFuhvnu5NjANoCwa5/data/708581085/attachments/attodqwKrSj9xJgaFkNjjdLk/,,-0.002606 34.608482 1537.4000244140625 1.4769999980926514,-0.002606,34.608482,1537.400024,22,bba83499-9491-4ca4-a9e4-2325d2086c22,uuid:bba83499-9491-4ca4-a9e4-2325d2086c22
School of pharmacy,https://kf.kobotoolbox.org/api/v2/assets/aaTu2MFuhvnu5NjANoCwa5/data/708581222/attachments/attW963pqygfdFFa7zXMCu4u/,,-0.002596 34.60826 1537.5999755859375 2.0179998874664307,-0.002596,34.60826,1537.599976,23,8124d3a9-b4d4-4189-87ac-de66e183a658,uuid:8124d3a9-b4d4-4189-87ac-de66e183a658
Carpentry workshop,https://kf.kobotoolbox.org/api/v2/assets/aaTu2MFuhvnu5NjANoCwa5/data/708582848/attachments/atthAZFYdAmoE7pdcg6u9WnQ/,,-0.002723 34.60764 1536.5999755859375 1.3819999694824219,-0.002723,34.60764,1536.599976,24,fbcfbb5f-b048-43bc-8e9b-104a56261e6b,uuid:fbcfbb5f-b048-43bc-8e9b-104a56261e6b
MASE/EDU/1/18,https://kf.kobotoolbox.org/api/v2/assets/aaTu2MFuhvnu5NjANoCwa5/data/708584615/attachments/atteH4WQZVAwqh6sp72Mffrc/,,-0.002367 34.608368 1527.5999755859375 1.0490000247955322,-0.002367,34.608368,1527.599976,25,ed532828-a431-4e13-9139-5255e3a04ed9,uuid:ed532828-a431-4e13-9139-5255e3a04ed9
pig  farms,https://kf.kobotoolbox.org/api/v2/assets/aaTu2MFuhvnu5NjANoCwa5/data/708584645/attachments/attpCRwSV4oQMKVoKz3fa85v/,https://kf.kobotoolbox.org/api/v2/assets/aaTu2MFuhvnu5NjANoCwa5/data/708584645/attachments/attBfgE35633sDXhE3vsmWLF/,-0.005369 34.604973 1527.0999755859375 6.980000019073486,-0.005369,34.604973,1527.099976,117,ae748d8c-576d-4f0b-b79b-aab216342667,uuid:ae748d8c-576d-4f0b-b79b-aab216342667
Dairy calf pen,https://kf.kobotoolbox.org/api/v2/assets/aaTu2MFuhvnu5NjANoCwa5/data/708586600/attachments/attt7uqet8B2aXDaowB4TtFp/,https://kf.kobotoolbox.org/api/v2/assets/aaTu2MFuhvnu5NjANoCwa5/data/708586600/attachments/attqzN9mTbzNrJjHxdnSZbBP/,-0.005202 34.605284 1517.8153076171875 6.7779998779296875,-0.005202,34.605284,1517.815308,118,0596dbbb-7a0f-4715-94ea-d1dba768e3d9,uuid:0596dbbb-7a0f-4715-94ea-d1dba768e3d9
Equator 13,https://kf.kobotoolbox.org/api/v2/assets/aaTu2MFuhvnu5NjANoCwa5/data/708586879/attachments/attjzrkSYBF5QQcAQExucehC/,https://kf.kobotoolbox.org/api/v2/assets/aaTu2MFuhvnu5NjANoCwa5/data/708586879/attachments/att9WdQw5nmTd8yNMnrtZDim/,-0.002031 34.608454 1541.4000244140625 0.7609999775886536,-0.002031,34.608454,1541.400024,26,068dc5c5-406b-44dd-8496-ae3fa05c6ed2,uuid:068dc5c5-406b-44dd-8496-ae3fa05c6ed2
Equator 12,https://kf.kobotoolbox.org/api/v2/assets/aaTu2MFuhvnu5NjANoCwa5/data/708587870/attachments/attpm9caMvMf4pNqndFMcVbA/,https://kf.kobotoolbox.org/api/v2/assets/aaTu2MFuhvnu5NjANoCwa5/data/708587870/attachments/attSujGRh8hRYpksJEXSNiNa/,-0.001628 34.608956 1541.4000244140625 3.877000093460083,-0.001628,34.608956,1541.400024,27,4f3a0714-9bf4-4201-be0c-a771791bf946,uuid:4f3a0714-9bf4-4201-be0c-a771791bf946
Equator 10,https://kf.kobotoolbox.org/api/v2/assets/aaTu2MFuhvnu5NjANoCwa5/data/708588956/attachments/attKRtD4yq3wuFfBqPSayjMe/,https://kf.kobotoolbox.org/api/v2/assets/aaTu2MFuhvnu5NjANoCwa5/data/708588956/attachments/attbzTXKhsGHughgBfzMawMY/,-0.001473 34.608461 1543.0999755859375 1.3940000534057617,-0.001473,34.608461,1543.099976,28,317c485e-5843-417f-aa8c-def5f7995054,uuid:317c485e-5843-417f-aa8c-def5f7995054
Temporary structure,https://kf.kobotoolbox.org/api/v2/assets/aaTu2MFuhvnu5NjANoCwa5/data/708589523/attachments/attsuJdp9BAzQKmKMEqhK5qb/,https://kf.kobotoolbox.org/api/v2/assets/aaTu2MFuhvnu5NjANoCwa5/data/708589523/attachments/atty3jmKkYTRmYDgrQNCq4es/,-0.005069 34.605482 1517.699951171875 10.118000030517578,-0.005069,34.605482,1517.699951,119,a41812f7-bdc4-4e36-aa79-bd04b002ef67,uuid:a41812f7-bdc4-4e36-aa79-bd04b002ef67
Temporary structure 2,https://kf.kobotoolbox.org/api/v2/assets/aaTu2MFuhvnu5NjANoCwa5/data/708590210/attachments/attnjivvDirWR5aXmfaUNGVT/,https://kf.kobotoolbox.org/api/v2/assets/aaTu2MFuhvnu5NjANoCwa5/data/708590210/attachments/att4oWVMQnHsfgEPBfdtQXQi/,-0.005008 34.605545 1517.699951171875 13.173999786376953,-0.005008,34.605545,1517.699951,120,9ef9acad-e0a7-4142-9987-f314b182e955,uuid:9ef9acad-e0a7-4142-9987-f314b182e955
Equator 9,https://kf.kobotoolbox.org/api/v2/assets/aaTu2MFuhvnu5NjANoCwa5/data/708590337/attachments/attmnVJWrchRFhwZWtzHW85F/,https://kf.kobotoolbox.org/api/v2/assets/aaTu2MFuhvnu5NjANoCwa5/data/708590337/attachments/attDNnPuBEXodw8wgwCSXyFJ/,-0.001569 34.608297 1543.0999755859375 2.509999990463257,-0.001569,34.608297,1543.099976,29,ff054ce1-435e-4370-b708-0076fddc376d,uuid:ff054ce1-435e-4370-b708-0076fddc376d
Equator 3,https://kf.kobotoolbox.org/api/v2/assets/aaTu2MFuhvnu5NjANoCwa5/data/708592229/attachments/attPjduxPXZnqBjugc8cC3zR/,https://kf.kobotoolbox.org/api/v2/assets/aaTu2MFuhvnu5NjANoCwa5/data/708592229/attachments/attEdUbkW87ErAorhUvca7o6/,-0.002898 34.608227 1546.0999755859375 2,-0.002898,34.608227,1546.099976,30,46fce0ff-9d52-4e1e-8275-c7ca618cb1ca,uuid:46fce0ff-9d52-4e1e-8275-c7ca618cb1ca
Equator 4,https://kf.kobotoolbox.org/api/v2/assets/aaTu2MFuhvnu5NjANoCwa5/data/708593610/attachments/attQsfSFZ6B5bXECPnAeA3DC/,https://kf.kobotoolbox.org/api/v2/assets/aaTu2MFuhvnu5NjANoCwa5/data/708593610/attachments/att3Y9MECBmLpzcugQG3diup/,-0.00159 34.608898 1543.0999755859375 1.0670000314712524,-0.00159,34.608898,1543.099976,31,5232b045-93fd-4567-b1a6-85c1717773d0,uuid:5232b045-93fd-4567-b1a6-85c1717773d0
Sch of Public Health and Community dev,https://kf.kobotoolbox.org/api/v2/assets/aaTu2MFuhvnu5NjANoCwa5/data/708595512/attachments/attvoincQBGYxwbyAJhfe333/,https://kf.kobotoolbox.org/api/v2/assets/aaTu2MFuhvnu5NjANoCwa5/data/708595512/attachments/attxo9CSPGRFjGu3TifNs8cE/,-0.005464 34.607225 1520.9000244140625 18.902999877929688,-0.005464,34.607225,1520.900024,121,254affa8-77d8-4412-a84a-ceda8f9f2cbe,uuid:254affa8-77d8-4412-a84a-ceda8f9f2cbe
Temporary structure,https://kf.kobotoolbox.org/api/v2/assets/aaTu2MFuhvnu5NjANoCwa5/data/708596807/attachments/attQUYyVuoe2jbUdVGpD2jgD/,https://kf.kobotoolbox.org/api/v2/assets/aaTu2MFuhvnu5NjANoCwa5/data/708596807/attachments/att3Dtg2s3AfxXxagAFUmjAb/,-0.005544 34.607251 1520.800048828125 87.5999984741211,-0.005544,34.607251,1520.800049,121,92edfed5-47b3-46b5-a56b-073dc2e1b057,uuid:92edfed5-47b3-46b5-a56b-073dc2e1b057
Foods Lab,https://kf.kobotoolbox.org/api/v2/assets/aaTu2MFuhvnu5NjANoCwa5/data/708597112/attachments/attqqazxMqAEZ9RZJVhLkTPa/,https://kf.kobotoolbox.org/api/v2/assets/aaTu2MFuhvnu5NjANoCwa5/data/708597112/attachments/attjwwgRv4s5bZcTcFvWkQen/,-0.001736 34.608787 1543.0999755859375 1.7660000324249268,-0.001736,34.608787,1543.099976,32,8420eb38-4f0a-4be9-b8ed-b37131c7cd46,uuid:8420eb38-4f0a-4be9-b8ed-b37131c7cd46
Department of Early childhood development,https://kf.kobotoolbox.org/api/v2/assets/aaTu2MFuhvnu5NjANoCwa5/data/708598398/attachments/att6FbmH6hmM9pPVdiuewAAE/,https://kf.kobotoolbox.org/api/v2/assets/aaTu2MFuhvnu5NjANoCwa5/data/708598398/attachments/att4rcWuAvo98WFwNFRougtF/,-0.005472 34.607275 1521.4000244140625 19.47800064086914,-0.005472,34.607275,1521.400024,123,25d4c8cb-7e78-4283-bd51-1afd45e8d1b6,uuid:25d4c8cb-7e78-4283-bd51-1afd45e8d1b6
Department of art and design,https://kf.kobotoolbox.org/api/v2/assets/aaTu2MFuhvnu5NjANoCwa5/data/708600232/attachments/attXko4rbjCBaVMk6Ae4Eykd/,,-0.00185 34.6089 1542.4000244140625 0.8370000123977661,-0.00185,34.6089,1542.400024,33,17981ecc-f7bb-42ec-823d-4e47c7030809,uuid:17981ecc-f7bb-42ec-823d-4e47c7030809
Poultry farm,https://kf.kobotoolbox.org/api/v2/assets/aaTu2MFuhvnu5NjANoCwa5/data/708601187/attachments/attBPDX8JRVkGpsgw6XcqXUS/,https://kf.kobotoolbox.org/api/v2/assets/aaTu2MFuhvnu5NjANoCwa5/data/708601187/attachments/attURMGKEB8MN7s9oFeajVCr/,-0.005497 34.607407 1521.4000244140625 60,-0.005497,34.607407,1521.400024,124,e3dbafc9-a823-43f9-a8fc-748617072a24,uuid:e3dbafc9-a823-43f9-a8fc-748617072a24
Chicken pen,https://kf.kobotoolbox.org/api/v2/assets/aaTu2MFuhvnu5NjANoCwa5/data/708601887/attachments/attib75Rddf4ZVMyLfZdphi9/,https://kf.kobotoolbox.org/api/v2/assets/aaTu2MFuhvnu5NjANoCwa5/data/708601887/attachments/attGWQeUk8RqQw9op2eVBoMN/,-0.005143 34.608296 1521.4000244140625 8.767000198364258,-0.005143,34.608296,1521.400024,125,65f987c5-fbfc-4492-b105-9386e635cf02,uuid:65f987c5-fbfc-4492-b105-9386e635cf02
Chick pen,https://kf.kobotoolbox.org/api/v2/assets/aaTu2MFuhvnu5NjANoCwa5/data/708602416/attachments/atteZi6WpKzQA4i7KG7cT5VB/,https://kf.kobotoolbox.org/api/v2/assets/aaTu2MFuhvnu5NjANoCwa5/data/708602416/attachments/attPT4aMkHEs3UkqHAj86uWV/,-0.005397 34.609067 1521.4000244140625 100,-0.005397,34.609067,1521.400024,126,aa42c550-a834-49b5-8af3-329328a93ade,uuid:aa42c550-a834-49b5-8af3-329328a93ade
Equator 7,https://kf.kobotoolbox.org/api/v2/assets/aaTu2MFuhvnu5NjANoCwa5/data/708602777/attachments/att7Sn8u3yEZPT65pNwcMMSY/,https://kf.kobotoolbox.org/api/v2/assets/aaTu2MFuhvnu5NjANoCwa5/data/708602777/attachments/attdnE5CUgtpHpA7XJC6zbRR/,-0.001808 34.60899 1542.4000244140625 8.779999732971191,-0.001808,34.60899,1542.400024,34,e7d7c5d8-01df-4607-a414-157ac93caf0e,uuid:e7d7c5d8-01df-4607-a414-157ac93caf0e
Temporary structure,https://kf.kobotoolbox.org/api/v2/assets/aaTu2MFuhvnu5NjANoCwa5/data/708603299/attachments/attePQSw5uKupscWcNXmCpvh/,https://kf.kobotoolbox.org/api/v2/assets/aaTu2MFuhvnu5NjANoCwa5/data/708603299/attachments/attN5aPBtMEqp5wKcSNqncTv/,-0.005169 34.608394 1521.4000244140625 12.645999908447266,-0.005169,34.608394,1521.400024,127,2c091a92-f5f2-427e-b912-7e9db5255ecd,uuid:2c091a92-f5f2-427e-b912-7e9db5255ecd
Temporary structure,https://kf.kobotoolbox.org/api/v2/assets/aaTu2MFuhvnu5NjANoCwa5/data/708603806/attachments/attfJdQjhZny6Ct9z3vU83cj/,https://kf.kobotoolbox.org/api/v2/assets/aaTu2MFuhvnu5NjANoCwa5/data/708603806/attachments/atthdU5LxRMDu4tFBoFf6XhU/,-0.005134 34.608362 1521.4000244140625 13.03600025177002,-0.005134,34.608362,1521.400024,128,b001daa4-8896-4a9e-8be4-4fac8e51e622,uuid:b001daa4-8896-4a9e-8be4-4fac8e51e622
Power house,https://kf.kobotoolbox.org/api/v2/assets/aaTu2MFuhvnu5NjANoCwa5/data/708603857/attachments/attfheScqkbnrxCeWyiAP2Y3/,,-0.001816 34.608957 1542.199951171875 0.8600000143051147,-0.001816,34.608957,1542.199951,35,c4c28a1d-1942-4b17-b1a4-b50fc4c3f397,uuid:c4c28a1d-1942-4b17-b1a4-b50fc4c3f397
Equator 5,https://kf.kobotoolbox.org/api/v2/assets/aaTu2MFuhvnu5NjANoCwa5/data/708604346/attachments/attVwuEG9vZZWqioyJLqFgiz/,https://kf.kobotoolbox.org/api/v2/assets/aaTu2MFuhvnu5NjANoCwa5/data/708604346/attachments/attSsmbfrd5NTYK2KdZgCTvz/,-0.001829 34.608818 1542.4000244140625 1.1920000314712524,-0.001829,34.608818,1542.400024,36,578f6218-b386-4706-87c5-cd99225e9ed3,uuid:578f6218-b386-4706-87c5-cd99225e9ed3
Poultry farm,https://kf.kobotoolbox.org/api/v2/assets/aaTu2MFuhvnu5NjANoCwa5/data/708604847/attachments/attEoGqaRrau9bLXncGWad7A/,https://kf.kobotoolbox.org/api/v2/assets/aaTu2MFuhvnu5NjANoCwa5/data/708604847/attachments/att7CwoDBWaP56xnWVQNPT6r/,-0.004864 34.608443 1521.4000244140625 14.904999732971191,-0.004864,34.608443,1521.400024,129,dd41cb39-6aeb-4d11-84e7-4fddb8b43ede,uuid:dd41cb39-6aeb-4d11-84e7-4fddb8b43ede
Equator 6,https://kf.kobotoolbox.org/api/v2/assets/aaTu2MFuhvnu5NjANoCwa5/data/708605491/attachments/attY9jQtZsVZK9dZGjqjoSox/,https://kf.kobotoolbox.org/api/v2/assets/aaTu2MFuhvnu5NjANoCwa5/data/708605491/attachments/attJZcALqmigtQZN66ovaNsE/,-0.001669 34.609128 1542.4000244140625 2.260999917984009,-0.001669,34.609128,1542.400024,,601faac4-2403-443e-997d-b3600a1b9c5a,uuid:601faac4-2403-443e-997d-b3600a1b9c5a
Poultry store,https://kf.kobotoolbox.org/api/v2/assets/aaTu2MFuhvnu5NjANoCwa5/data/708605520/attachments/attrKpFxZ38c9QkAmw7guMXo/,https://kf.kobotoolbox.org/api/v2/assets/aaTu2MFuhvnu5NjANoCwa5/data/708605520/attachments/attZWhJd33NrJkjYQ4cBnJfy/,-0.004539 34.608059 1529.4000244140625 77.5999984741211,-0.004539,34.608059,1529.400024,130,082523ae-548d-4821-b45f-c9cd9eb425f5,uuid:082523ae-548d-4821-b45f-c9cd9eb425f5
Workers quarters,https://kf.kobotoolbox.org/api/v2/assets/aaTu2MFuhvnu5NjANoCwa5/data/708607909/attachments/attYPeKwR9AjCciAvDwdW4CN/,https://kf.kobotoolbox.org/api/v2/assets/aaTu2MFuhvnu5NjANoCwa5/data/708607909/attachments/attHBiMDH8yVBz5uvpovmhzE/,-0.004537 34.608062 1529.4000244140625 48.900001525878906,-0.004537,34.608062,1529.400024,131,cfb874fb-8f45-4261-ace2-8109d4500ef1,uuid:cfb874fb-8f45-4261-ace2-8109d4500ef1
Department of Botany,https://kf.kobotoolbox.org/api/v2/assets/aaTu2MFuhvnu5NjANoCwa5/data/708608760/attachments/attmpX3J9VYhpSUEnyXWe449/,,-0.002208 34.608915 1542.199951171875 0.9570000171661377,-0.002208,34.608915,1542.199951,,2ca00da1-bfe7-4fca-bc5c-7064b575563c,uuid:2ca00da1-bfe7-4fca-bc5c-7064b575563c
Department of medical laboratory science,https://kf.kobotoolbox.org/api/v2/assets/aaTu2MFuhvnu5NjANoCwa5/data/708609519/attachments/attKfW3XcDDMB7aYF6k9tJFS/,https://kf.kobotoolbox.org/api/v2/assets/aaTu2MFuhvnu5NjANoCwa5/data/708609519/attachments/attnuP25DFMd6ctfJtXjtHuv/,-0.005335 34.607124 1520.9000244140625 60,-0.005335,34.607124,1520.900024,132,7748038f-9a34-4901-9b82-c3ebf5bdc3e5,uuid:7748038f-9a34-4901-9b82-c3ebf5bdc3e5
Department of physics,https://kf.kobotoolbox.org/api/v2/assets/aaTu2MFuhvnu5NjANoCwa5/data/708610302/attachments/attK6jed5nGvx4ADX7m3RmQg/,,-0.002075 34.608814 1539.800048828125 0.7870000004768372,-0.002075,34.608814,1539.800049,39,3f7efe00-10e3-481c-ac0e-3c9297177f4b,uuid:3f7efe00-10e3-481c-ac0e-3c9297177f4b
Equator 14,https://kf.kobotoolbox.org/api/v2/assets/aaTu2MFuhvnu5NjANoCwa5/data/708610974/attachments/attBctv9yM5szPjiHGTSCsDs/,https://kf.kobotoolbox.org/api/v2/assets/aaTu2MFuhvnu5NjANoCwa5/data/708610974/attachments/attWJiDEJVHeV2QKRiSkVZCj/,-0.00192 34.608505 1541.0999755859375 8.668000221252441,-0.00192,34.608505,1541.099976,40,ec49360e-852e-43d4-a2ca-8064e7aecfbf,uuid:ec49360e-852e-43d4-a2ca-8064e7aecfbf
Equator 11,https://kf.kobotoolbox.org/api/v2/assets/aaTu2MFuhvnu5NjANoCwa5/data/708612610/attachments/attBLxcqz9jKZQk5yKBjRybk/,https://kf.kobotoolbox.org/api/v2/assets/aaTu2MFuhvnu5NjANoCwa5/data/708612610/attachments/attSryJaZpYeA8C6svfeB9Nt/,-0.001855 34.608656 1541.0999755859375 20.992000579833984,-0.001855,34.608656,1541.099976,41,c85abfbf-5d5a-4d24-b1d5-e595efcf31e5,uuid:c85abfbf-5d5a-4d24-b1d5-e595efcf31e5
DVC residential,https://kf.kobotoolbox.org/api/v2/assets/aaTu2MFuhvnu5NjANoCwa5/data/708613528/attachments/att8PyFcPVzTrvf8S76xgutK/,https://kf.kobotoolbox.org/api/v2/assets/aaTu2MFuhvnu5NjANoCwa5/data/708613528/attachments/attrNSY2GFyAb4XbKzM3CjUq/,-0.003478 34.609412 1529.4000244140625 100,-0.003478,34.609412,1529.400024,133,77c0e406-4773-4c57-80c1-4815e3e9f78f,uuid:77c0e406-4773-4c57-80c1-4815e3e9f78f
DVC parking,https://kf.kobotoolbox.org/api/v2/assets/aaTu2MFuhvnu5NjANoCwa5/data/708614163/attachments/attr7Kv6Kg552uKVEZ88SK2C/,https://kf.kobotoolbox.org/api/v2/assets/aaTu2MFuhvnu5NjANoCwa5/data/708614163/attachments/attE76xEc8Wa6Kqw5eUcWmkM/,-0.003478 34.609412 1529.4000244140625 100,-0.003478,34.609412,1529.400024,134,414e01d9-c99c-42f8-960a-c01cdbd0b586,uuid:414e01d9-c99c-42f8-960a-c01cdbd0b586
Store,https://kf.kobotoolbox.org/api/v2/assets/aaTu2MFuhvnu5NjANoCwa5/data/708614652/attachments/attMiJ5MKpdD3gqD2kuvMC9q/,,-0.002395 34.608461 1538.5999755859375 1.2089999914169312,-0.002395,34.608461,1538.599976,42,2a823dc9-e86b-4a28-bbcc-808f8e898a77,uuid:2a823dc9-e86b-4a28-bbcc-808f8e898a77
DVC parking 2,https://kf.kobotoolbox.org/api/v2/assets/aaTu2MFuhvnu5NjANoCwa5/data/708615272/attachments/attqQ35dPi3SAvKtFeLZ9tDj/,https://kf.kobotoolbox.org/api/v2/assets/aaTu2MFuhvnu5NjANoCwa5/data/708615272/attachments/attJEVKP5W6cZRnXtfNedAuV/,-0.004677 34.609412 1529.4000244140625 100,-0.004677,34.609412,1529.400024,135,9ca3b0f8-bab5-4f42-a292-3309922aa038,uuid:9ca3b0f8-bab5-4f42-a292-3309922aa038
School of public health,https://kf.kobotoolbox.org/api/v2/assets/aaTu2MFuhvnu5NjANoCwa5/data/708615672/attachments/attMtLDeVVZzfbngUSSi3huF/,,-0.004392 34.604799 1527.5999755859375 82.5,-0.004392,34.604799,1527.599976,43,917f7f85-c347-482e-a87f-12a42a6fe256,uuid:917f7f85-c347-482e-a87f-12a42a6fe256
School of mathematics and and actuarial science,https://kf.kobotoolbox.org/api/v2/assets/aaTu2MFuhvnu5NjANoCwa5/data/708617234/attachments/attdD2xhsnfT6CFJFm8R6TvQ/,,-0.002499 34.608647 1539.800048828125 54.96200180053711,-0.002499,34.608647,1539.800049,44,536f7408-0bb0-4fed-84a0-5a1036b34e42,uuid:536f7408-0bb0-4fed-84a0-5a1036b34e42
Chem lab 3,https://kf.kobotoolbox.org/api/v2/assets/aaTu2MFuhvnu5NjANoCwa5/data/708618512/attachments/attaW388L7oLCbhbQGikkoxP/,,-0.002287 34.609098 1539.800048828125 0.675000011920929,-0.002287,34.609098,1539.800049,45,f4e4a2ad-2b17-453a-87d4-69844bf2e43b,uuid:f4e4a2ad-2b17-453a-87d4-69844bf2e43b
Department of zoology lab,https://kf.kobotoolbox.org/api/v2/assets/aaTu2MFuhvnu5NjANoCwa5/data/708619608/attachments/att9zNeskzpGSaRExa2qxzx9/,,-0.002084 34.609349 1542.300048828125 10.267000198364258,-0.002084,34.609349,1542.300049,46,7f36e0ad-695f-41e8-a6d1-4c961986c3ab,uuid:7f36e0ad-695f-41e8-a6d1-4c961986c3ab
Hindocha hall,https://kf.kobotoolbox.org/api/v2/assets/aaTu2MFuhvnu5NjANoCwa5/data/708620761/attachments/attoCWZE8Kommta4d7jik73H/,,-0.00213 34.609662 1542.300048828125 1.2020000219345093,-0.00213,34.609662,1542.300049,47,7422895a-b5a4-43a3-b4d5-571599a2b5aa,uuid:7422895a-b5a4-43a3-b4d5-571599a2b5aa
School of planning and Architecture,https://kf.kobotoolbox.org/api/v2/assets/aaTu2MFuhvnu5NjANoCwa5/data/708620854/attachments/attDVwcnStFudNXxuoVebsXg/,https://kf.kobotoolbox.org/api/v2/assets/aaTu2MFuhvnu5NjANoCwa5/data/708620854/attachments/attrzrWTGXpbVshXiZmk7UV8/,-0.004905 34.61038 1538.9000244140625 68.4000015258789,-0.004905,34.61038,1538.900024,136,f11989ad-4ccf-4159-a099-e0bfa24a30e4,uuid:f11989ad-4ccf-4159-a099-e0bfa24a30e4
,,https://kf.kobotoolbox.org/api/v2/assets/aaTu2MFuhvnu5NjANoCwa5/data/708622425/attachments/attU2b6SBwLpUkZy7ZMjKAiN/,-0.001894 34.609962 1542 1.2000000476837158,-0.001894,34.609962,1542,48,08dac03e-afcc-4ed0-baa7-28803345c702,uuid:08dac03e-afcc-4ed0-baa7-28803345c702
MSU/SRB/083,https://kf.kobotoolbox.org/api/v2/assets/aaTu2MFuhvnu5NjANoCwa5/data/708623379/attachments/attc2wYU7jmquSDNmBUeeHji/,https://kf.kobotoolbox.org/api/v2/assets/aaTu2MFuhvnu5NjANoCwa5/data/708623379/attachments/attfz8w5yrSsSdZ8yy2AMrqe/,-0.004929 34.609845 1535 33.284000396728516,-0.004929,34.609845,1535,137,45cda64c-0cf2-42ee-b279-cdf34225bdb1,uuid:45cda64c-0cf2-42ee-b279-cdf34225bdb1
Harambee hall,https://kf.kobotoolbox.org/api/v2/assets/aaTu2MFuhvnu5NjANoCwa5/data/708623931/attachments/attg7cJmTny3HJ6vy9CgHocX/,,-0.001479 34.609541 1542.9000244140625 49.573001861572266,-0.001479,34.609541,1542.900024,49,48db14e4-147c-4413-8625-fec1c4aad39b,uuid:48db14e4-147c-4413-8625-fec1c4aad39b
Office of Career service alumni office,https://kf.kobotoolbox.org/api/v2/assets/aaTu2MFuhvnu5NjANoCwa5/data/708625151/attachments/attSMqJyqCq7HiEUhtAL4twU/,https://kf.kobotoolbox.org/api/v2/assets/aaTu2MFuhvnu5NjANoCwa5/data/708625151/attachments/atttr2VXiDqx6oKYgRzuRDrr/,-0.004831 34.609941 1535.5 59.46200180053711,-0.004831,34.609941,1535.5,138,6062ef80-b3b6-4f8e-836e-556115561bc5,uuid:6062ef80-b3b6-4f8e-836e-556115561bc5
Temporary store,https://kf.kobotoolbox.org/api/v2/assets/aaTu2MFuhvnu5NjANoCwa5/data/708626983/attachments/att986dDvs7sH7TwKKZVcF4v/,https://kf.kobotoolbox.org/api/v2/assets/aaTu2MFuhvnu5NjANoCwa5/data/708626983/attachments/attpCBZAHXHUyUKxg9xWY4s6/,-0.005099 34.609729 1535.5 77.5999984741211,-0.005099,34.609729,1535.5,139,f8118422-b338-4787-acad-1ce7fe31ad0f,uuid:f8118422-b338-4787-acad-1ce7fe31ad0f
Cafeteria,https://kf.kobotoolbox.org/api/v2/assets/aaTu2MFuhvnu5NjANoCwa5/data/708627516/attachments/attz2mLh6V2LN7gMYdzARbtU/,https://kf.kobotoolbox.org/api/v2/assets/aaTu2MFuhvnu5NjANoCwa5/data/708627516/attachments/att4Heq83DYvVg2D5iZcNS5Q/,-0.001591 34.609841 1541.9000244140625 20.767000198364258,-0.001591,34.609841,1541.900024,50,794aad86-a94a-48fd-94ce-40237e4e1149,uuid:794aad86-a94a-48fd-94ce-40237e4e1149
Department of special needs,https://kf.kobotoolbox.org/api/v2/assets/aaTu2MFuhvnu5NjANoCwa5/data/708628513/attachments/att5ZTZNga8swhoGvVAZxSng/,https://kf.kobotoolbox.org/api/v2/assets/aaTu2MFuhvnu5NjANoCwa5/data/708628513/attachments/attVwcEdQnwrZX6NM8kSdeou/,-0.004865 34.609795 1534.699951171875 92.9000015258789,-0.004865,34.609795,1534.699951,140,8258228d-cae7-4656-8f6a-ae7ec24af4ae,uuid:8258228d-cae7-4656-8f6a-ae7ec24af4ae
School of music,https://kf.kobotoolbox.org/api/v2/assets/aaTu2MFuhvnu5NjANoCwa5/data/708641434/attachments/attNZykord4sdgMdvA7UHDv3/,,-0.00222 34.609849 1538.0999755859375 0.875,-0.00222,34.609849,1538.099976,51,bd893a05-94d5-4de8-874a-1e228ecdf6f2,uuid:bd893a05-94d5-4de8-874a-1e228ecdf6f2
Washroom,https://kf.kobotoolbox.org/api/v2/assets/aaTu2MFuhvnu5NjANoCwa5/data/708643956/attachments/att6YKgaRAWiG7ofocKAD6sL/,,-0.002586 34.61041 1538.0999755859375 34.400001525878906,-0.002586,34.61041,1538.099976,52,1dcd1d45-3bca-41f4-9a9d-1c87c7eaea55,uuid:1dcd1d45-3bca-41f4-9a9d-1c87c7eaea55
University clinic,https://kf.kobotoolbox.org/api/v2/assets/aaTu2MFuhvnu5NjANoCwa5/data/708645730/attachments/att7bhmWKhne5eNzuBKsisQx/,,-0.001479 34.610621 1543.699951171875 1.8819999694824219,-0.001479,34.610621,1543.699951,53,fcd748b8-8977-4297-84cb-4a5dcb4033da,uuid:fcd748b8-8977-4297-84cb-4a5dcb4033da
Car park,https://kf.kobotoolbox.org/api/v2/assets/aaTu2MFuhvnu5NjANoCwa5/data/708646776/attachments/attnLQEybGjvWa8geC7H2ftj/,,-0.001562 34.610639 1543.699951171875 16.233999252319336,-0.001562,34.610639,1543.699951,54,302022a9-1c03-40a5-a0a9-d34808ad28a5,uuid:302022a9-1c03-40a5-a0a9-d34808ad28a5
Hospital wards,https://kf.kobotoolbox.org/api/v2/assets/aaTu2MFuhvnu5NjANoCwa5/data/708648561/attachments/att2KGCPB7S9TSgGTbMKNu6d/,,-0.001334 34.609955 1549 70.10600280761719,-0.001334,34.609955,1549,55,c3520be3-53de-42da-9e97-f775699fc531,uuid:c3520be3-53de-42da-9e97-f775699fc531
Aids control unit,https://kf.kobotoolbox.org/api/v2/assets/aaTu2MFuhvnu5NjANoCwa5/data/708651601/attachments/attFbxPbVnij59Ln7gDEfpUZ/,,-0.001269 34.610593 1543.699951171875 23.82699966430664,-0.001269,34.610593,1543.699951,56,483fc0cf-999f-4d89-ba09-e5697965b283,uuid:483fc0cf-999f-4d89-ba09-e5697965b283
Washroom,https://kf.kobotoolbox.org/api/v2/assets/aaTu2MFuhvnu5NjANoCwa5/data/708863336/attachments/attQVvBiVFHxzg59aoBr8D6S/,,-0.007222 34.598063 1510 55.37799835205078,-0.007222,34.598063,1510,283,527e6e17-787b-41da-8674-f831cc335140,uuid:527e6e17-787b-41da-8674-f831cc335140
Baby care,https://kf.kobotoolbox.org/api/v2/assets/aaTu2MFuhvnu5NjANoCwa5/data/708865882/attachments/attYdtuwGxMHmjmUZ5PBS2JY/,https://kf.kobotoolbox.org/api/v2/assets/aaTu2MFuhvnu5NjANoCwa5/data/708865882/attachments/attrR9qqzZsaFYGAjTJRjmSE/,-0.007994 34.598169 1506.199951171875 23.499000549316406,-0.007994,34.598169,1506.199951,77,2043bf80-735c-4ad6-ab81-360639cc4e7a,uuid:2043bf80-735c-4ad6-ab81-360639cc4e7a
Tennis court,https://kf.kobotoolbox.org/api/v2/assets/aaTu2MFuhvnu5NjANoCwa5/data/708867244/attachments/attQvG5WZ8wsgsA8W5Cnyfif/,,-0.007231 34.598241 1510 41.05699920654297,-0.007231,34.598241,1510,151,f3ff72f5-3181-4308-942a-6cd435e82923,uuid:f3ff72f5-3181-4308-942a-6cd435e82923
Finance office,https://kf.kobotoolbox.org/api/v2/assets/aaTu2MFuhvnu5NjANoCwa5/data/708869166/attachments/attsbwYNLam7ojCTTQNWWt5T/,,-0.007593 34.597365 1505.5999755859375 28.503999710083008,-0.007593,34.597365,1505.599976,82,9c9bce29-250e-4ed9-afe1-3f09e99d45a0,uuid:9c9bce29-250e-4ed9-afe1-3f09e99d45a0
Workers' cafeteria,https://kf.kobotoolbox.org/api/v2/assets/aaTu2MFuhvnu5NjANoCwa5/data/708872380/attachments/att2uWtqbUD9WxKX56cFuoDG/,,-0.007605 34.597355 1505.699951171875 8.949999809265137,-0.007605,34.597355,1505.699951,84,61663e2c-1914-4d1b-a416-523506cb0563,uuid:61663e2c-1914-4d1b-a416-523506cb0563
Nzoia hostel,https://kf.kobotoolbox.org/api/v2/assets/aaTu2MFuhvnu5NjANoCwa5/data/708876693/attachments/attaQECafuuaCKwSPtPpbxA2/,https://kf.kobotoolbox.org/api/v2/assets/aaTu2MFuhvnu5NjANoCwa5/data/708876693/attachments/attKi5UuUTSppyekb6jSNata/,-0.00861 34.597357 1503.5 26.399999618530273,-0.00861,34.597357,1503.5,76,44b24191-fd0c-4486-a4c0-9b60d3e5bc3b,uuid:44b24191-fd0c-4486-a4c0-9b60d3e5bc3b
Directorate of linkages outreach and consultancies and institute for gender studies,https://kf.kobotoolbox.org/api/v2/assets/aaTu2MFuhvnu5NjANoCwa5/data/708879690/attachments/attXdyEV6cmV9NhMbgtVWAZG/,,-0.007874 34.597129 1505.9000244140625 64.0999984741211,-0.007874,34.597129,1505.900024,81,257bd02f-1980-4d3d-af12-41e38935cf83,uuid:257bd02f-1980-4d3d-af12-41e38935cf83
Directorate of research and innovation,https://kf.kobotoolbox.org/api/v2/assets/aaTu2MFuhvnu5NjANoCwa5/data/708881660/attachments/attqJhYwUYgvd2jPMiwtMJaf/,,-0.008341 34.596472 1505.5999755859375 116.0999984741211,-0.008341,34.596472,1505.599976,75,5d19777a-f635-4878-b51e-3e617ff27b30,uuid:5d19777a-f635-4878-b51e-3e617ff27b30
Ndeere  18 and 19 hostel,https://kf.kobotoolbox.org/api/v2/assets/aaTu2MFuhvnu5NjANoCwa5/data/708884507/attachments/attEuazMjYduLYt2Aupk9hHA/,,-0.008056 34.59679 1508.300048828125 11.199999809265137,-0.008056,34.59679,1508.300049,74,0799ded6-e175-4ef1-ac84-e4d687fd43e8,uuid:0799ded6-e175-4ef1-ac84-e4d687fd43e8
Directorate of public relations,https://kf.kobotoolbox.org/api/v2/assets/aaTu2MFuhvnu5NjANoCwa5/data/708887139/attachments/att49KKvHVg9fu6FgAaUK92R/,,-0.007557 34.595575 1508.300048828125 100,-0.007557,34.595575,1508.300049,80,bb6084bd-8c32-420a-9860-5c0867191822,uuid:bb6084bd-8c32-420a-9860-5c0867191822
Temporary structure,https://kf.kobotoolbox.org/api/v2/assets/aaTu2MFuhvnu5NjANoCwa5/data/708889329/attachments/attpQatqEQT3KiDfDy4iFEu2/,,-0.007557 34.596359 1508.300048828125 9.5,-0.007557,34.596359,1508.300049,90,bc316c8f-af35-46a3-9359-af15cac69900,uuid:bc316c8f-af35-46a3-9359-af15cac69900
Internal audit office,https://kf.kobotoolbox.org/api/v2/assets/aaTu2MFuhvnu5NjANoCwa5/data/708890946/attachments/attLLYzm4PziptvdmQgFyGcb/,,-0.008234 34.59596 1506.300048828125 98.4000015258789,-0.008234,34.59596,1506.300049,79,93b5b110-5c2c-4dc9-8d50-a4c0d5982af9,uuid:93b5b110-5c2c-4dc9-8d50-a4c0d5982af9
School of graduate studies,https://kf.kobotoolbox.org/api/v2/assets/aaTu2MFuhvnu5NjANoCwa5/data/708892244/attachments/attDzAMKUpCGbSgz4cAFXBtt/,,-0.007946 34.597026 1508.300048828125 92.9000015258789,-0.007946,34.597026,1508.300049,78,d2bdffb1-5ad1-4628-a4a9-535573e23390,uuid:d2bdffb1-5ad1-4628-a4a9-535573e23390
School of graduate studies store room,https://kf.kobotoolbox.org/api/v2/assets/aaTu2MFuhvnu5NjANoCwa5/data/708893904/attachments/attezPwXUsMsQvTYjBtCCxBt/,,-0.007077 34.597997 1508.300048828125 100,-0.007077,34.597997,1508.300049,135,2f9cc3f3-1a56-4d10-9733-2c2f6c71c0fe,uuid:2f9cc3f3-1a56-4d10-9733-2c2f6c71c0fe
Other hostel,https://kf.kobotoolbox.org/api/v2/assets/aaTu2MFuhvnu5NjANoCwa5/data/708895595/attachments/attsYwaTvULLZYSpPeSQSAeF/,,-0.008414 34.594994 1509.199951171875 56.21099853515625,-0.008414,34.594994,1509.199951,89,e4fdeef7-7b66-4c30-8bcc-ba245613afbf,uuid:e4fdeef7-7b66-4c30-8bcc-ba245613afbf
Guidance and counselling office,https://kf.kobotoolbox.org/api/v2/assets/aaTu2MFuhvnu5NjANoCwa5/data/708897707/attachments/attpfjRSCECyRpBWGJPGf2vR/,,-0.008414 34.594994 1509.199951171875 201.01499938964844,-0.008414,34.594994,1509.199951,85,6bce7c04-a23d-42c4-a685-f4d19d51e27b,uuid:6bce7c04-a23d-42c4-a685-f4d19d51e27b
Workers' quarters,https://kf.kobotoolbox.org/api/v2/assets/aaTu2MFuhvnu5NjANoCwa5/data/708901206/attachments/atthXG3CeK5z5aKEJg6FAtmu/,,-0.007681 34.595207 1508.9000244140625 20,-0.007681,34.595207,1508.900024,86,4b416c60-79af-407a-b1a2-63ff908bd000,uuid:4b416c60-79af-407a-b1a2-63ff908bd000
Workers' quarters,https://kf.kobotoolbox.org/api/v2/assets/aaTu2MFuhvnu5NjANoCwa5/data/708902000/attachments/attFWtxMLMZmCczb2XdVpbhM/,,-0.007755 34.595264 1509.5 56.099998474121094,-0.007755,34.595264,1509.5,88,7a6f11c9-4f0e-448c-b3ac-82bebfba2e79,uuid:7a6f11c9-4f0e-448c-b3ac-82bebfba2e79
Ndeere 16 and 17 hostel,https://kf.kobotoolbox.org/api/v2/assets/aaTu2MFuhvnu5NjANoCwa5/data/708904715/attachments/attCdEgtFrZwCZUoD6vMKGW3/,,-0.008238 34.595961 1506.300048828125 116.0999984741211,-0.008238,34.595961,1506.300049,73,592cae7b-4ffc-4c8a-820c-f0aad41a92f4,uuid:592cae7b-4ffc-4c8a-820c-f0aad41a92f4
Ndeere 15 hostel,https://kf.kobotoolbox.org/api/v2/assets/aaTu2MFuhvnu5NjANoCwa5/data/708906838/attachments/attFWejvEpeVGAq75QkAbSB5/,,-0.008234 34.59596 1506.300048828125 98.4000015258789,-0.008234,34.59596,1506.300049,72,956bdcd2-aa5b-4d3a-b856-3ec535664ddb,uuid:956bdcd2-aa5b-4d3a-b856-3ec535664ddb
Ndeere 14 and 15 hostels,https://kf.kobotoolbox.org/api/v2/assets/aaTu2MFuhvnu5NjANoCwa5/data/708907818/attachments/attGtppBwRNW3bUugujp43DQ/,,-0.008495 34.595337 1508.0999755859375 135.60000610351562,-0.008495,34.595337,1508.099976,115,e7d5c88e-151e-4b71-a881-60c4ad5ed188,uuid:e7d5c88e-151e-4b71-a881-60c4ad5ed188
Ndeere 14 hostel,https://kf.kobotoolbox.org/api/v2/assets/aaTu2MFuhvnu5NjANoCwa5/data/708908712/attachments/attsftnbpzfsFEZ82V8JEqwo/,,-0.00849 34.595337 1508.0999755859375 26.52899932861328,-0.00849,34.595337,1508.099976,71,30c4d915-f84a-40a8-8df1-fa1a76b04bee,uuid:30c4d915-f84a-40a8-8df1-fa1a76b04bee
Washrooms,https://kf.kobotoolbox.org/api/v2/assets/aaTu2MFuhvnu5NjANoCwa5/data/708909610/attachments/attQTqpGjvYGbx8vxcAdUQz7/,,-0.008479 34.595336 1508.0999755859375 22.5,-0.008479,34.595336,1508.099976,69,f96a4a11-cfec-48f0-9ad6-701333f9ee14,uuid:f96a4a11-cfec-48f0-9ad6-701333f9ee14
Ndeere 13,https://kf.kobotoolbox.org/api/v2/assets/aaTu2MFuhvnu5NjANoCwa5/data/708910773/attachments/attNVLwFCRy8cX2DERaPLx97/,,-0.00849 34.595302 1508.0999755859375 64.0999984741211,-0.00849,34.595302,1508.099976,68,f1d7e21f-81c1-448d-986d-aea3bbc4a2db,uuid:f1d7e21f-81c1-448d-986d-aea3bbc4a2db
Ndeere 13,https://kf.kobotoolbox.org/api/v2/assets/aaTu2MFuhvnu5NjANoCwa5/data/708911532/attachments/attevQodzHV2vkpc3LGnhC3Z/,,-0.008202 34.595194 1508.5 23.600000381469727,-0.008202,34.595194,1508.5,70,75a3d6e1-5958-4016-8577-79770d74de62,uuid:75a3d6e1-5958-4016-8577-79770d74de62
Ndeere 12 hostel,https://kf.kobotoolbox.org/api/v2/assets/aaTu2MFuhvnu5NjANoCwa5/data/708912128/attachments/attAXxDgXSbBR7nZNGcwsYWJ/,,-0.008352 34.594742 1509.5 32.0989990234375,-0.008352,34.594742,1509.5,66,f11fe79b-c544-44c7-96ce-4c58e3ff85cd,uuid:f11fe79b-c544-44c7-96ce-4c58e3ff85cd
Ndeere 12 hostel,https://kf.kobotoolbox.org/api/v2/assets/aaTu2MFuhvnu5NjANoCwa5/data/708912849/attachments/att9C3kNjeGcNqew8ybDYUYD/,,-0.008474 34.595326 1508.0999755859375 28.18000030517578,-0.008474,34.595326,1508.099976,67,8d2f1281-37c8-4014-971f-0eb040b43944,uuid:8d2f1281-37c8-4014-971f-0eb040b43944
Ndeere 11 hostel,https://kf.kobotoolbox.org/api/v2/assets/aaTu2MFuhvnu5NjANoCwa5/data/708914227/attachments/atttumWQF8kZTXpMWAEcBJPB/,,-0.008381 34.594694 1509.5 20.7810001373291,-0.008381,34.594694,1509.5,68,16cafd8e-b397-48b1-9991-f3afab49ae2b,uuid:16cafd8e-b397-48b1-9991-f3afab49ae2b
Rusinga 1 hostel,https://kf.kobotoolbox.org/api/v2/assets/aaTu2MFuhvnu5NjANoCwa5/data/708914946/attachments/attCMtBB8FznTiFm3xBw7KTr/,,-0.008354 34.594654 1509.5 33.20100021362305,-0.008354,34.594654,1509.5,62,f9305ecc-9858-4509-b274-2cf1afa3f34d,uuid:f9305ecc-9858-4509-b274-2cf1afa3f34d
Rusinga 2 hostel,https://kf.kobotoolbox.org/api/v2/assets/aaTu2MFuhvnu5NjANoCwa5/data/708915504/attachments/att6FcNxjGTuTQHwergcAVZL/,,-0.008339 34.594757 1509.5 64.0999984741211,-0.008339,34.594757,1509.5,63,436ff192-9c3b-453e-b860-f0fcf4304b3a,uuid:436ff192-9c3b-453e-b860-f0fcf4304b3a
Victoria F hostels,https://kf.kobotoolbox.org/api/v2/assets/aaTu2MFuhvnu5NjANoCwa5/data/708921736/attachments/attuUrDLXDFX782JHBNFTctv/,https://kf.kobotoolbox.org/api/v2/assets/aaTu2MFuhvnu5NjANoCwa5/data/708921736/attachments/attvvc82F8rcxa8nVvwTPbra/,-0.008829 34.593754 1511.5 25.83099937438965,-0.008829,34.593754,1511.5,301,1cd64387-e362-4cd2-a529-098bbe98640d,uuid:1cd64387-e362-4cd2-a529-098bbe98640d
Victoria A hostels,https://kf.kobotoolbox.org/api/v2/assets/aaTu2MFuhvnu5NjANoCwa5/data/708923677/attachments/attmpvKj7RppfQ9AXwXRzCTB/,https://kf.kobotoolbox.org/api/v2/assets/aaTu2MFuhvnu5NjANoCwa5/data/708923677/attachments/attuMCSZDmoDvQCSPp25x8D5/,-0.008841 34.593684 1511.5 20,-0.008841,34.593684,1511.5,302,eb400d6f-e91a-43a1-a55e-081bcef9256a,uuid:eb400d6f-e91a-43a1-a55e-081bcef9256a
Victoria B hostels,https://kf.kobotoolbox.org/api/v2/assets/aaTu2MFuhvnu5NjANoCwa5/data/708924979/attachments/att8Z7VMPMcLqBc7jFNnUjDZ/,https://kf.kobotoolbox.org/api/v2/assets/aaTu2MFuhvnu5NjANoCwa5/data/708924979/attachments/attyVbVvUpbMWjpvnZJqhGS2/,-0.008458 34.597411 1508.300048828125 39.599998474121094,-0.008458,34.597411,1508.300049,303,5e8d3c57-b3f7-44f9-9aca-643f47f9a559,uuid:5e8d3c57-b3f7-44f9-9aca-643f47f9a559
Victoria G hostels,https://kf.kobotoolbox.org/api/v2/assets/aaTu2MFuhvnu5NjANoCwa5/data/708926081/attachments/attrgukQJMtQsJhcR8TSLtTq/,https://kf.kobotoolbox.org/api/v2/assets/aaTu2MFuhvnu5NjANoCwa5/data/708926081/attachments/att53rP45igb9x5uWhGEamES/,-0.0088 34.593557 1513.5 30,-0.0088,34.593557,1513.5,304,3d9a232f-a313-47b1-95c6-2fb99009d386,uuid:3d9a232f-a313-47b1-95c6-2fb99009d386
Victoria C hostels,https://kf.kobotoolbox.org/api/v2/assets/aaTu2MFuhvnu5NjANoCwa5/data/708926980/attachments/atta22EadGwKVFJPxQcBCcjZ/,https://kf.kobotoolbox.org/api/v2/assets/aaTu2MFuhvnu5NjANoCwa5/data/708926980/attachments/attdnp4TweyTJ5RLqMAhbLSK/,-0.008591 34.593725 1508.699951171875 20,-0.008591,34.593725,1508.699951,305,e520231f-fc73-41c0-afa5-d29478c54491,uuid:e520231f-fc73-41c0-afa5-d29478c54491
Victoria H hostels,https://kf.kobotoolbox.org/api/v2/assets/aaTu2MFuhvnu5NjANoCwa5/data/708927502/attachments/attiayefHeQW2mWVZedfttGe/,https://kf.kobotoolbox.org/api/v2/assets/aaTu2MFuhvnu5NjANoCwa5/data/708927502/attachments/attFPmkFpzwfhP2Hzj3iSsQk/,-0.00858 34.593719 1508.699951171875 21.600000381469727,-0.00858,34.593719,1508.699951,306,21f6298c-aa45-4435-9da8-b18c48114b21,uuid:21f6298c-aa45-4435-9da8-b18c48114b21
Victoria E hostels,https://kf.kobotoolbox.org/api/v2/assets/aaTu2MFuhvnu5NjANoCwa5/data/708928930/attachments/attZVxN5G5eofjSzA5JgowKC/,https://kf.kobotoolbox.org/api/v2/assets/aaTu2MFuhvnu5NjANoCwa5/data/708928930/attachments/attE2kxtUwKo6KnWkq7znYXZ/,-0.006883 34.595925 1511.199951171875 39.599998474121094,-0.006883,34.595925,1511.199951,307,baf35b62-85ff-473a-a35d-b96a1a77a76a,uuid:baf35b62-85ff-473a-a35d-b96a1a77a76a
Victoria D hostels,https://kf.kobotoolbox.org/api/v2/assets/aaTu2MFuhvnu5NjANoCwa5/data/708929813/attachments/attHYx3rVfhxat3p6rvHhioR/,https://kf.kobotoolbox.org/api/v2/assets/aaTu2MFuhvnu5NjANoCwa5/data/708929813/attachments/attfvczw3X7TtrkygbFJDmUn/,-0.006886 34.595923 1511.199951171875 87.5999984741211,-0.006886,34.595923,1511.199951,308,198b179a-bae0-4689-be8d-a15c3b24847e,uuid:198b179a-bae0-4689-be8d-a15c3b24847e
Entertainment area,https://kf.kobotoolbox.org/api/v2/assets/aaTu2MFuhvnu5NjANoCwa5/data/708931282/attachments/att2HKmkXnUNahHeJVu8un3Y/,https://kf.kobotoolbox.org/api/v2/assets/aaTu2MFuhvnu5NjANoCwa5/data/708931282/attachments/attxSoV3HYtnNV7w68vhcAJP/,-0.008084 34.593386 1509.199951171875 23.600000381469727,-0.008084,34.593386,1509.199951,309,0d8c699d-596b-4f94-864c-ae5a0b407d26,uuid:0d8c699d-596b-4f94-864c-ae5a0b407d26
Victoria J hostels,https://kf.kobotoolbox.org/api/v2/assets/aaTu2MFuhvnu5NjANoCwa5/data/708932833/attachments/att5n5h5ez9H5GZja5vQPDVw/,,-0.008418 34.593796 1510.199951171875 44.09600067138672,-0.008418,34.593796,1510.199951,310,b6894b2c-930f-49c6-b18e-980ab08832bd,uuid:b6894b2c-930f-49c6-b18e-980ab08832bd
Communication booster,https://kf.kobotoolbox.org/api/v2/assets/aaTu2MFuhvnu5NjANoCwa5/data/708933615/attachments/attNR8sXB3gg5kzhhWErn9Ti/,,-0.007914 34.593439 1508.300048828125 21.575000762939453,-0.007914,34.593439,1508.300049,311,423660d8-6ec8-42b2-989f-da2a9f391943,uuid:423660d8-6ec8-42b2-989f-da2a9f391943
Yala A and B hostels,https://kf.kobotoolbox.org/api/v2/assets/aaTu2MFuhvnu5NjANoCwa5/data/708935425/attachments/attL79qRmSHy3DBLQiPka3tc/,,-0.007333 34.593701 1508.300048828125 42.5,-0.007333,34.593701,1508.300049,312,429f7d1b-9061-4622-9a4c-070b3ea13ad8,uuid:429f7d1b-9061-4622-9a4c-070b3ea13ad8
Temporal structure,https://kf.kobotoolbox.org/api/v2/assets/aaTu2MFuhvnu5NjANoCwa5/data/709253276/attachments/attXGCJHB2LaACiYkXXsfzWN/,https://kf.kobotoolbox.org/api/v2/assets/aaTu2MFuhvnu5NjANoCwa5/data/709253276/attachments/att9YA8T66GBwSQTMi9bSFtN/,-0.00772 34.594338 1491.3 15.048999786376953,-0.00772,34.594338,1491.3,315,831c3be2-8d1d-4749-99a1-9e78b93d6a5a,uuid:831c3be2-8d1d-4749-99a1-9e78b93d6a5a
NDERE 7,https://kf.kobotoolbox.org/api/v2/assets/aaTu2MFuhvnu5NjANoCwa5/data/709254129/attachments/attaCvBTyby3NivC4BPQ3gCx/,https://kf.kobotoolbox.org/api/v2/assets/aaTu2MFuhvnu5NjANoCwa5/data/709254129/attachments/attrokmeiFFvvmMeHbNWmGwD/,-0.007331 34.594531 1491.5 4.199999809265137,-0.007331,34.594531,1491.5,316,c7b6b203-d8cd-48c0-9af6-b727823f297a,uuid:c7b6b203-d8cd-48c0-9af6-b727823f297a
WASHROOM,https://kf.kobotoolbox.org/api/v2/assets/aaTu2MFuhvnu5NjANoCwa5/data/709255385/attachments/attj4TqhUFpvC7gu9xQwVFxk/,https://kf.kobotoolbox.org/api/v2/assets/aaTu2MFuhvnu5NjANoCwa5/data/709255385/attachments/attGkD5M7RBVmnPt3pq5ptqB/,-0.00725 34.594812 1492.4 5.495999813079834,-0.00725,34.594812,1492.4,319,95f054c2-5258-4e37-ac70-7e283326e18c,uuid:95f054c2-5258-4e37-ac70-7e283326e18c
NDERE 10,https://kf.kobotoolbox.org/api/v2/assets/aaTu2MFuhvnu5NjANoCwa5/data/709256206/attachments/attzCzr7tpAbXdZkHBeCgsTb/,https://kf.kobotoolbox.org/api/v2/assets/aaTu2MFuhvnu5NjANoCwa5/data/709256206/attachments/attbFFonNZExtFWXp3VZPNnM/,-0.007237 34.595199 1492.6000000000001 6.099999904632568,-0.007237,34.595199,1492.6,320,5d71a24a-242a-47ad-9162-af1d273ebfb7,uuid:5d71a24a-242a-47ad-9162-af1d273ebfb7
DEPARTMENT OF TRANSPORT OFFICES,https://kf.kobotoolbox.org/api/v2/assets/aaTu2MFuhvnu5NjANoCwa5/data/709256780/attachments/attKyrAnYM284uDbv8KQdhCd/,https://kf.kobotoolbox.org/api/v2/assets/aaTu2MFuhvnu5NjANoCwa5/data/709256780/attachments/attJdbqKggb9VLJPBz5nbD8j/,-0.00719 34.595335 1492.7 13.38599967956543,-0.00719,34.595335,1492.7,321,e7c5f209-5b4a-4279-9181-3b87d00f31c8,uuid:e7c5f209-5b4a-4279-9181-3b87d00f31c8
NDERE 1,https://kf.kobotoolbox.org/api/v2/assets/aaTu2MFuhvnu5NjANoCwa5/data/709257251/attachments/attvD9EazrQGPbqDeXce8bKw/,https://kf.kobotoolbox.org/api/v2/assets/aaTu2MFuhvnu5NjANoCwa5/data/709257251/attachments/attzdv5tZD75KzD4QojSdN6v/,-0.006939 34.59531 1492.9 6.525000095367432,-0.006939,34.59531,1492.9,322,44491cc3-0652-402b-8a5f-12687b04ba94,uuid:44491cc3-0652-402b-8a5f-12687b04ba94
NDERE 2,https://kf.kobotoolbox.org/api/v2/assets/aaTu2MFuhvnu5NjANoCwa5/data/709257738/attachments/attCsTY9MXYnDUq7zM3JNsjq/,https://kf.kobotoolbox.org/api/v2/assets/aaTu2MFuhvnu5NjANoCwa5/data/709257738/attachments/atteqQvYspPs5NorHvCUJVjW/,-0.006838 34.595575 1492.9 100,-0.006838,34.595575,1492.9,323,b10582f3-16b6-4372-8af4-bbee3c75ef1c,uuid:b10582f3-16b6-4372-8af4-bbee3c75ef1c
RUSINGA 3,https://kf.kobotoolbox.org/api/v2/assets/aaTu2MFuhvnu5NjANoCwa5/data/709258369/attachments/attLUNMA9d6bCzCzrd2vNmmC/,https://kf.kobotoolbox.org/api/v2/assets/aaTu2MFuhvnu5NjANoCwa5/data/709258369/attachments/attMCt6MjEwQENAwn6PEUKwU/,-0.006761 34.595007 1492.9 8.5,-0.006761,34.595007,1492.9,324,8461cd3d-49da-4bef-9670-0703176dfb39,uuid:8461cd3d-49da-4bef-9670-0703176dfb39
NDERE 3,https://kf.kobotoolbox.org/api/v2/assets/aaTu2MFuhvnu5NjANoCwa5/data/709259099/attachments/attwmqdeiDAk49eteaajBF9M/,https://kf.kobotoolbox.org/api/v2/assets/aaTu2MFuhvnu5NjANoCwa5/data/709259099/attachments/attoWZVAzKceZArPUYnzUkdr/,-0.007067 34.594827 1494.5 5.3470001220703125,-0.007067,34.594827,1494.5,325,2206f574-d9ba-4b88-80d3-9e7004382e65,uuid:2206f574-d9ba-4b88-80d3-9e7004382e65
NDERE 4,https://kf.kobotoolbox.org/api/v2/assets/aaTu2MFuhvnu5NjANoCwa5/data/709259437/attachments/attAstaQR3bxZYBsgLVvWPnv/,https://kf.kobotoolbox.org/api/v2/assets/aaTu2MFuhvnu5NjANoCwa5/data/709259437/attachments/att3aVhCYZD7hTjbHmkUGm9C/,-0.00701 34.594741 1494.5 15.791000366210938,-0.00701,34.594741,1494.5,326,be3f5414-237f-451f-8b1e-237e487f9713,uuid:be3f5414-237f-451f-8b1e-237e487f9713
NDERE 5,https://kf.kobotoolbox.org/api/v2/assets/aaTu2MFuhvnu5NjANoCwa5/data/709259912/attachments/attMuzuZhH5eKRzARrpesL7G/,https://kf.kobotoolbox.org/api/v2/assets/aaTu2MFuhvnu5NjANoCwa5/data/709259912/attachments/atttqoXSFR6uibjnUQFHKkGR/,-0.006838 34.595575 1494.7 100,-0.006838,34.595575,1494.7,327,ac3d3892-e76e-46dc-9f2c-6a69f2add577,uuid:ac3d3892-e76e-46dc-9f2c-6a69f2add577
NDERE 6,https://kf.kobotoolbox.org/api/v2/assets/aaTu2MFuhvnu5NjANoCwa5/data/709260281/attachments/attSUvheKU9kn8kHwnyvv8xR/,https://kf.kobotoolbox.org/api/v2/assets/aaTu2MFuhvnu5NjANoCwa5/data/709260281/attachments/attXQ45UNpLopeESRBkZWxyS/,-0.006838 34.595575 1494.7 100,-0.006838,34.595575,1494.7,328,fb4dcda8-72bd-4403-99bc-0228d9108b42,uuid:fb4dcda8-72bd-4403-99bc-0228d9108b42
Temporary structure,https://kf.kobotoolbox.org/api/v2/assets/aaTu2MFuhvnu5NjANoCwa5/data/709260801/attachments/attvktM2XwniKkfXtDdUmoP9/,https://kf.kobotoolbox.org/api/v2/assets/aaTu2MFuhvnu5NjANoCwa5/data/709260801/attachments/attYisQgEcDhuG3MBrYU7wEf/,-0.006838 34.595575 1494.7 100,-0.006838,34.595575,1494.7,329,3a86c3ae-f731-408d-b0d5-9c939942e335,uuid:3a86c3ae-f731-408d-b0d5-9c939942e335
Garage 1,https://kf.kobotoolbox.org/api/v2/assets/aaTu2MFuhvnu5NjANoCwa5/data/709262841/attachments/attzYd2o6XsFixrShiCy7rcV/,https://kf.kobotoolbox.org/api/v2/assets/aaTu2MFuhvnu5NjANoCwa5/data/709262841/attachments/attDGNmd3cb8XTssiA2URffi/,-0.00742 34.595465 1508.8 5.199999809265137,-0.00742,34.595465,1508.8,230,76f06c8d-6c5f-4a3d-9b6f-c5b2d5980f94,uuid:76f06c8d-6c5f-4a3d-9b6f-c5b2d5980f94
Garage 1,https://kf.kobotoolbox.org/api/v2/assets/aaTu2MFuhvnu5NjANoCwa5/data/709263197/attachments/attdrH759PYVAnkqJvTJovsV/,https://kf.kobotoolbox.org/api/v2/assets/aaTu2MFuhvnu5NjANoCwa5/data/709263197/attachments/attm93qUqb8WoHgci86ELNER/,-0.007458 34.595238 1508.7 5.5,-0.007458,34.595238,1508.7,330,097a949e-3e46-49b6-9646-af50584a0419,uuid:097a949e-3e46-49b6-9646-af50584a0419
Department of transport store,https://kf.kobotoolbox.org/api/v2/assets/aaTu2MFuhvnu5NjANoCwa5/data/709263486/attachments/attCpeCE7KeG9yWdPuj8YyPX/,https://kf.kobotoolbox.org/api/v2/assets/aaTu2MFuhvnu5NjANoCwa5/data/709263486/attachments/attuCK845RHHXeehqR6ookYw/,-0.007493 34.595245 1508.7 6,-0.007493,34.595245,1508.7,331,f3b8469c-4323-4985-81a5-3c8e3e67737d,uuid:f3b8469c-4323-4985-81a5-3c8e3e67737d
Department of transport store 1,https://kf.kobotoolbox.org/api/v2/assets/aaTu2MFuhvnu5NjANoCwa5/data/709263886/attachments/attWMXUZkquv4siJ2bo7T8jT/,https://kf.kobotoolbox.org/api/v2/assets/aaTu2MFuhvnu5NjANoCwa5/data/709263886/attachments/attfzRyKGwyMwYAhCXerR9tp/,-0.007453 34.595247 1508.7 5.900000095367432,-0.007453,34.595247,1508.7,332,653ceacf-4005-4eaa-a859-f9a546421a6c,uuid:653ceacf-4005-4eaa-a859-f9a546421a6c
Department of transport  bus park,https://kf.kobotoolbox.org/api/v2/assets/aaTu2MFuhvnu5NjANoCwa5/data/709264381/attachments/attpY296CgHeTfMSKTZ5ZQSL/,https://kf.kobotoolbox.org/api/v2/assets/aaTu2MFuhvnu5NjANoCwa5/data/709264381/attachments/atthgFEcn2WzKkMrTTdGPawh/,-0.007538 34.595143 1508.8 14.444999694824219,-0.007538,34.595143,1508.8,333,b20c5e80-e441-4345-aa8f-40a407238eb0,uuid:b20c5e80-e441-4345-aa8f-40a407238eb0
Department of transport bus park 2,https://kf.kobotoolbox.org/api/v2/assets/aaTu2MFuhvnu5NjANoCwa5/data/709264711/attachments/attV3v3KV8aWYdZFnY3Hoq3e/,https://kf.kobotoolbox.org/api/v2/assets/aaTu2MFuhvnu5NjANoCwa5/data/709264711/attachments/attMTESgguZhQnByXq23rqea/,-0.00752 34.595125 1508.8 14.215999603271484,-0.00752,34.595125,1508.8,334,76cefb94-6910-463d-8917-45bf5ce4097e,uuid:76cefb94-6910-463d-8917-45bf5ce4097e
Department of transport bus park 3,https://kf.kobotoolbox.org/api/v2/assets/aaTu2MFuhvnu5NjANoCwa5/data/709265082/attachments/attCHap6NDkAHZie7e3YxFhL/,https://kf.kobotoolbox.org/api/v2/assets/aaTu2MFuhvnu5NjANoCwa5/data/709265082/attachments/attJLboBE9K4YjJcrs3HAxum/,-0.00765 34.594812 1508.9 5.699999809265137,-0.00765,34.594812,1508.9,335,777026c9-26ce-422e-8b5c-f9d00809328b,uuid:777026c9-26ce-422e-8b5c-f9d00809328b
Department of transport car park,https://kf.kobotoolbox.org/api/v2/assets/aaTu2MFuhvnu5NjANoCwa5/data/709265933/attachments/atts7KR5PZQmi6P746XdxSR4/,https://kf.kobotoolbox.org/api/v2/assets/aaTu2MFuhvnu5NjANoCwa5/data/709265933/attachments/attujRxDZpkxw7CHRwpGArnu/,-0.007495 34.594994 1509 17.299999237060547,-0.007495,34.594994,1509,336,c719e30d-19c9-45ab-9865-1842a4edbf08,uuid:c719e30d-19c9-45ab-9865-1842a4edbf08
Department of transport car park 2,https://kf.kobotoolbox.org/api/v2/assets/aaTu2MFuhvnu5NjANoCwa5/data/709266189/attachments/attMZFzNz9RZrYCo8tANwE3C/,https://kf.kobotoolbox.org/api/v2/assets/aaTu2MFuhvnu5NjANoCwa5/data/709266189/attachments/attqdBCaUtTuqvxmXPvEhPeK/,-0.007483 34.595159 1509 9.130999565124512,-0.007483,34.595159,1509,337,0d25ccfe-3dca-457c-a1dd-f571fce66ef7,uuid:0d25ccfe-3dca-457c-a1dd-f571fce66ef7
POWER HOUSE,https://kf.kobotoolbox.org/api/v2/assets/aaTu2MFuhvnu5NjANoCwa5/data/709266990/attachments/attNtucWjWgUsrzPD8LsEsic/,https://kf.kobotoolbox.org/api/v2/assets/aaTu2MFuhvnu5NjANoCwa5/data/709266990/attachments/attmwyFYn7fuH9kWkp7VBhc5/,-0.007136 34.595536 1512.1000000000001 13.800000190734863,-0.007136,34.595536,1512.1,338,a2ccd3c0-4eeb-4baa-be33-939179f08cb6,uuid:a2ccd3c0-4eeb-4baa-be33-939179f08cb6
Temporary building,https://kf.kobotoolbox.org/api/v2/assets/aaTu2MFuhvnu5NjANoCwa5/data/709267580/attachments/attE2RKhhVXVzgt9AhJ5v8ME/,https://kf.kobotoolbox.org/api/v2/assets/aaTu2MFuhvnu5NjANoCwa5/data/709267580/attachments/atto8oBHgu8ork5xsBiR3VDf/,-0.006139 34.595685 1512 5.872000217437744,-0.006139,34.595685,1512,3393,4ea88294-b813-4d15-928d-4974f6b611b2,uuid:4ea88294-b813-4d15-928d-4974f6b611b2
Washrooms,https://kf.kobotoolbox.org/api/v2/assets/aaTu2MFuhvnu5NjANoCwa5/data/709267916/attachments/attbNdAFM2FsPVwDEojFrvQL/,https://kf.kobotoolbox.org/api/v2/assets/aaTu2MFuhvnu5NjANoCwa5/data/709267916/attachments/attWnDeCMuQwv5WZRe2BCHhK/,-0.005871 34.595816 1511.8999999999999 5.900000095367432,-0.005871,34.595816,1511.9,340,8ff41ed0-199b-4d21-b0fa-79d6bc7ed6e9,uuid:8ff41ed0-199b-4d21-b0fa-79d6bc7ed6e9
Temporary Structure,https://kf.kobotoolbox.org/api/v2/assets/aaTu2MFuhvnu5NjANoCwa5/data/709268278/attachments/attgf8AYpk3orENvPQzR74mo/,https://kf.kobotoolbox.org/api/v2/assets/aaTu2MFuhvnu5NjANoCwa5/data/709268278/attachments/att5XMaByzoYE2NqEovAmydY/,-0.005919 34.59577 1511.8999999999999 7.599999904632568,-0.005919,34.59577,1511.9,341,9908b99b-7c5a-474a-aa9c-28166d87a67d,uuid:9908b99b-7c5a-474a-aa9c-28166d87a67d
Supply chain management,https://kf.kobotoolbox.org/api/v2/assets/aaTu2MFuhvnu5NjANoCwa5/data/709269154/attachments/attTmeNi6vKxHzgSLeYRcV5N/,https://kf.kobotoolbox.org/api/v2/assets/aaTu2MFuhvnu5NjANoCwa5/data/709269154/attachments/attY78AzRSWoATmTjrhfFvtz/,-0.006582 34.595859 1512 8.300000190734863,-0.006582,34.595859,1512,342,65d9b282-c224-4375-a1bf-7bae5c5a4980,uuid:65d9b282-c224-4375-a1bf-7bae5c5a4980
Mara 1,https://kf.kobotoolbox.org/api/v2/assets/aaTu2MFuhvnu5NjANoCwa5/data/709270551/attachments/attgJt9uZzbY8q4n7qqrP3Xj/,https://kf.kobotoolbox.org/api/v2/assets/aaTu2MFuhvnu5NjANoCwa5/data/709270551/attachments/att5BQfodFatMpnC3jg4TW4X/,-0.005968 34.596225 1511.8999999999999 93.51100158691406,-0.005968,34.596225,1511.9,343,604e9120-fc01-40c1-a7fb-3ff50b908467,uuid:604e9120-fc01-40c1-a7fb-3ff50b908467
Cafeteria,https://kf.kobotoolbox.org/api/v2/assets/aaTu2MFuhvnu5NjANoCwa5/data/709271256/attachments/attTrYWFo3TLqNxHemw8MbGQ/,https://kf.kobotoolbox.org/api/v2/assets/aaTu2MFuhvnu5NjANoCwa5/data/709271256/attachments/attjvxeW2Va4NS83Y7bQV3mp/,-0.005935 34.596329 1511.8999999999999 10.199999809265137,-0.005935,34.596329,1511.9,344,3029e94a-ad7f-4f9d-a66d-64cc9ab6de17,uuid:3029e94a-ad7f-4f9d-a66d-64cc9ab6de17
Store keeper office,https://kf.kobotoolbox.org/api/v2/assets/aaTu2MFuhvnu5NjANoCwa5/data/709271877/attachments/attLq7hWCDCSL28mEWzF6j8q/,https://kf.kobotoolbox.org/api/v2/assets/aaTu2MFuhvnu5NjANoCwa5/data/709271877/attachments/attw9fr99Dpt7XnFXjiU8CUs/,-0.005842 34.596252 1505.1 14.388999938964844,-0.005842,34.596252,1505.1,345,ac1902ad-31b2-45d0-9419-69146109a033,uuid:ac1902ad-31b2-45d0-9419-69146109a033
Kilimanjaro hostels,https://kf.kobotoolbox.org/api/v2/assets/aaTu2MFuhvnu5NjANoCwa5/data/709273297/attachments/attKcHhnAEvkf5EVANfrCvKW/,https://kf.kobotoolbox.org/api/v2/assets/aaTu2MFuhvnu5NjANoCwa5/data/709273297/attachments/atteWyY2XNJWMPz4y7cse2t6/,-0.005563 34.596643 1504.8 32.28200149536133,-0.005563,34.596643,1504.8,346,dbe1dc0d-a0d6-46fc-8d0c-882a7e325bb6,uuid:dbe1dc0d-a0d6-46fc-8d0c-882a7e325bb6
Washrooms,https://kf.kobotoolbox.org/api/v2/assets/aaTu2MFuhvnu5NjANoCwa5/data/709273552/attachments/attfVZWKycmQucnQiACnzGSN/,https://kf.kobotoolbox.org/api/v2/assets/aaTu2MFuhvnu5NjANoCwa5/data/709273552/attachments/att4CowZoCkwJFt6YDNyfpZY/,-0.005432 34.596599 1504.6 100,-0.005432,34.596599,1504.6,347,6426b68b-bfca-44fe-86e8-80b46486573d,uuid:6426b68b-bfca-44fe-86e8-80b46486573d
Water pump and tanks,https://kf.kobotoolbox.org/api/v2/assets/aaTu2MFuhvnu5NjANoCwa5/data/709274289/attachments/atty67DVXZ9hR72WHHAgUVGd/,https://kf.kobotoolbox.org/api/v2/assets/aaTu2MFuhvnu5NjANoCwa5/data/709274289/attachments/attahGVbQSZ5MiMgx7Uteh98/,-0.005313 34.59674 1504.8 4.599999904632568,-0.005313,34.59674,1504.8,348,068b6c86-4bcf-4692-beea-8ebd1bcc8d91,uuid:068b6c86-4bcf-4692-beea-8ebd1bcc8d91
Cooperative bank ATM,https://kf.kobotoolbox.org/api/v2/assets/aaTu2MFuhvnu5NjANoCwa5/data/709274873/attachments/attqmJukPxFeiYkq2BijawyZ/,https://kf.kobotoolbox.org/api/v2/assets/aaTu2MFuhvnu5NjANoCwa5/data/709274873/attachments/attV3seYDAPL2qR4qYnDDcjC/,-0.005286 34.596779 1504.8999999999999 5.699999809265137,-0.005286,34.596779,1504.9,349,ba2d9c6e-1d2d-4814-9a5c-879703fdec5a,uuid:ba2d9c6e-1d2d-4814-9a5c-879703fdec5a
Temporary building,https://kf.kobotoolbox.org/api/v2/assets/aaTu2MFuhvnu5NjANoCwa5/data/709275897/attachments/attYBUHd9U66U2EhSyrL3B5u/,https://kf.kobotoolbox.org/api/v2/assets/aaTu2MFuhvnu5NjANoCwa5/data/709275897/attachments/atttjh6LDy5ji3Sj9YMawPZc/,-0.00561 34.597313 1504.1999999999998 11.572999954223633,-0.00561,34.597313,1504.2,350,7b1fd44e-901d-400a-be16-03cdc139023b,uuid:7b1fd44e-901d-400a-be16-03cdc139023b
Mara 4,https://kf.kobotoolbox.org/api/v2/assets/aaTu2MFuhvnu5NjANoCwa5/data/709276697/attachments/attbCnWThGJGXaizHZnoji3A/,https://kf.kobotoolbox.org/api/v2/assets/aaTu2MFuhvnu5NjANoCwa5/data/709276697/attachments/att9tNhUkYowhW6HgpaqTmDw/,-0.005588 34.597275 1504.1999999999998 8.399999618530273,-0.005588,34.597275,1504.2,351,2e230502-b7fe-4f54-803b-d94cf53cf111,uuid:2e230502-b7fe-4f54-803b-d94cf53cf111
Mara 3,https://kf.kobotoolbox.org/api/v2/assets/aaTu2MFuhvnu5NjANoCwa5/data/709276971/attachments/attDuotsQUmzYPPijzC9eibW/,https://kf.kobotoolbox.org/api/v2/assets/aaTu2MFuhvnu5NjANoCwa5/data/709276971/attachments/attxe7m5bPM8mp2Vp96DZfKk/,-0.005859 34.596822 1505 5.599999904632568,-0.005859,34.596822,1505,352,8d09c3b2-810e-461a-b917-933cca281f97,uuid:8d09c3b2-810e-461a-b917-933cca281f97
Mara 2,https://kf.kobotoolbox.org/api/v2/assets/aaTu2MFuhvnu5NjANoCwa5/data/709277384/attachments/attmzb83mSDvUboV5RS9T8dM/,https://kf.kobotoolbox.org/api/v2/assets/aaTu2MFuhvnu5NjANoCwa5/data/709277384/attachments/att75NA7cwnWriAYXo4pMNfb/,-0.00677 34.595769 1504.8999999999999 100,-0.00677,34.595769,1504.9,353,8ee077f7-dfa0-4bdf-a104-22323d2c1644,uuid:8ee077f7-dfa0-4bdf-a104-22323d2c1644
College Hall,https://kf.kobotoolbox.org/api/v2/assets/aaTu2MFuhvnu5NjANoCwa5/data/709277922/attachments/att5WzH6E6RiDmBSi46zkjGH/,https://kf.kobotoolbox.org/api/v2/assets/aaTu2MFuhvnu5NjANoCwa5/data/709277922/attachments/atts67uKhwT6uA7Rt35YQNKG/,-0.006013 34.596656 1505 13.647000312805176,-0.006013,34.596656,1505,354,f5a6770e-5a97-41f8-9730-df471fa0b4f2,uuid:f5a6770e-5a97-41f8-9730-df471fa0b4f2
System admin/Accounts hall/registry,https://kf.kobotoolbox.org/api/v2/assets/aaTu2MFuhvnu5NjANoCwa5/data/709280114/attachments/att2rCeSdGK2rUtG2YwGBGfx/,https://kf.kobotoolbox.org/api/v2/assets/aaTu2MFuhvnu5NjANoCwa5/data/709280114/attachments/attHtScewuTdALnNPGBLbdg8/,-0.006838 34.595575 1505 100,-0.006838,34.595575,1505,355,18c2be83-869c-4ba2-ba7a-3ad3caec9700,uuid:18c2be83-869c-4ba2-ba7a-3ad3caec9700
Car park,https://kf.kobotoolbox.org/api/v2/assets/aaTu2MFuhvnu5NjANoCwa5/data/709280580/attachments/attgHZRPjA7Ft86TtpSrGKwr/,https://kf.kobotoolbox.org/api/v2/assets/aaTu2MFuhvnu5NjANoCwa5/data/709280580/attachments/attxXXPbMZxY3XqGMkMaqUCG/,-0.006438 34.596304 1505.5 5.5,-0.006438,34.596304,1505.5,356,2c9c3368-b720-45f8-a02e-725ac9430035,uuid:2c9c3368-b720-45f8-a02e-725ac9430035
Car park,https://kf.kobotoolbox.org/api/v2/assets/aaTu2MFuhvnu5NjANoCwa5/data/709281124/attachments/atttDprf6TgVpBzJkRwqRRHi/,https://kf.kobotoolbox.org/api/v2/assets/aaTu2MFuhvnu5NjANoCwa5/data/709281124/attachments/attd42V4jycQLsC597ebMbRY/,-0.006716 34.596415 1506 4.206999778747559,-0.006716,34.596415,1506,357,b0454cf6-4e53-4435-8906-153b0d83df7b,uuid:b0454cf6-4e53-4435-8906-153b0d83df7b
Main Administration block,https://kf.kobotoolbox.org/api/v2/assets/aaTu2MFuhvnu5NjANoCwa5/data/709281869/attachments/atttjUeiqxMRb7jxTHn3KnTj/,https://kf.kobotoolbox.org/api/v2/assets/aaTu2MFuhvnu5NjANoCwa5/data/709281869/attachments/atto5B48ZTfg7KuWTc9gCSfk/,-0.006694 34.596458 1506.1 4.449999809265137,-0.006694,34.596458,1506.1,358,3ef34983-3243-47ca-be39-d5f0664b349e,uuid:3ef34983-3243-47ca-be39-d5f0664b349e
Finance office,https://kf.kobotoolbox.org/api/v2/assets/aaTu2MFuhvnu5NjANoCwa5/data/709282690/attachments/att7ia92UpTD2rbhUKQXjkR5/,https://kf.kobotoolbox.org/api/v2/assets/aaTu2MFuhvnu5NjANoCwa5/data/709282690/attachments/attUeqkwmWhW4ZBT7SGRAKpa/,-0.006679 34.596758 1506.1999999999998 17.16699981689453,-0.006679,34.596758,1506.2,359,045b619c-caf3-47b3-b2ce-88a66f5d9096,uuid:045b619c-caf3-47b3-b2ce-88a66f5d9096
Car park,https://kf.kobotoolbox.org/api/v2/assets/aaTu2MFuhvnu5NjANoCwa5/data/709283232/attachments/attg9tX7ssrUt6VmaoNePHXr/,https://kf.kobotoolbox.org/api/v2/assets/aaTu2MFuhvnu5NjANoCwa5/data/709283232/attachments/attUwA9VH2W28B87dBrnFyRf/,-0.00665 34.597208 1509.1 9.399999618530273,-0.00665,34.597208,1509.1,360,e7902970-f0da-447b-9298-d67a738c0548,uuid:e7902970-f0da-447b-9298-d67a738c0548
Security office,https://kf.kobotoolbox.org/api/v2/assets/aaTu2MFuhvnu5NjANoCwa5/data/709283998/attachments/attEMzPQ6muxtiSrJFkvQxot/,https://kf.kobotoolbox.org/api/v2/assets/aaTu2MFuhvnu5NjANoCwa5/data/709283998/attachments/attfX6zWqTPSZ4De96NYVtcF/,-0.006322 34.59806 1509.1 37.766998291015625,-0.006322,34.59806,1509.1,361,af953f82-191d-4a70-a94c-8dce8fd38d4f,uuid:af953f82-191d-4a70-a94c-8dce8fd38d4f
Washrooms,https://kf.kobotoolbox.org/api/v2/assets/aaTu2MFuhvnu5NjANoCwa5/data/709284710/attachments/attfJmk3Ax8dDBKtohbjciUd/,https://kf.kobotoolbox.org/api/v2/assets/aaTu2MFuhvnu5NjANoCwa5/data/709284710/attachments/attkz6vyzVPp2sm8voo8o8xA/,-0.007057 34.59769 1509.1 29.53499984741211,-0.007057,34.59769,1509.1,362,6e3d86dc-1eaa-4c0c-8659-e4e2af75720c,uuid:6e3d86dc-1eaa-4c0c-8659-e4e2af75720c
Tsavo 9,https://kf.kobotoolbox.org/api/v2/assets/aaTu2MFuhvnu5NjANoCwa5/data/709336677/attachments/attEFBh5CqbcVWFCQRvwD2oi/,https://kf.kobotoolbox.org/api/v2/assets/aaTu2MFuhvnu5NjANoCwa5/data/709336677/attachments/attoxHHFWKu6tZdTDgVNWAiz/,-0.005121 34.609647 1534.5 19.503999710083008,-0.005121,34.609647,1534.5,141,829cc316-6bf9-4345-9c66-c173fc1cddcc,uuid:829cc316-6bf9-4345-9c66-c173fc1cddcc
Toilet,https://kf.kobotoolbox.org/api/v2/assets/aaTu2MFuhvnu5NjANoCwa5/data/709336733/attachments/attsQA9mJUZYUQBx5dQJNcDd/,https://kf.kobotoolbox.org/api/v2/assets/aaTu2MFuhvnu5NjANoCwa5/data/709336733/attachments/att8FCDeLizfGHPm2TkvGf6U/,-0.00507 34.609809 1535.5 20.906999588012695,-0.00507,34.609809,1535.5,142,11e539a0-c046-499d-a03d-4fe14387e0af,uuid:11e539a0-c046-499d-a03d-4fe14387e0af
Tsavo 7,https://kf.kobotoolbox.org/api/v2/assets/aaTu2MFuhvnu5NjANoCwa5/data/709336780/attachments/attndgHdwPseg9DNbGacEEuN/,https://kf.kobotoolbox.org/api/v2/assets/aaTu2MFuhvnu5NjANoCwa5/data/709336780/attachments/attzN2ScgiDcu857MDqrqH6X/,-0.005016 34.609917 1536.4000244140625 19.143999099731445,-0.005016,34.609917,1536.400024,143,2716af03-4b73-4d05-aa6f-f950bcd1cb9b,uuid:2716af03-4b73-4d05-aa6f-f950bcd1cb9b
SQ 7,https://kf.kobotoolbox.org/api/v2/assets/aaTu2MFuhvnu5NjANoCwa5/data/709336813/attachments/atthWYnKhAS7LBot7W5oKGbi/,https://kf.kobotoolbox.org/api/v2/assets/aaTu2MFuhvnu5NjANoCwa5/data/709336813/attachments/attgoDmPoANZYLxvHPQHbyzt/,-0.004967 34.609845 1536.4000244140625 20.46500015258789,-0.004967,34.609845,1536.400024,144,a9e67741-5899-4564-95f6-47d0c2d031fa,uuid:a9e67741-5899-4564-95f6-47d0c2d031fa
Tsavo ict office,https://kf.kobotoolbox.org/api/v2/assets/aaTu2MFuhvnu5NjANoCwa5/data/709336856/attachments/att4jmUK6DcpcrKpHQePfCvn/,https://kf.kobotoolbox.org/api/v2/assets/aaTu2MFuhvnu5NjANoCwa5/data/709336856/attachments/attb7QejzCaG2CjHCYGNf5wm/,-0.004583 34.610228 1538.9000244140625 40.19900131225586,-0.004583,34.610228,1538.900024,145,8cc12ca3-4692-46e4-81bf-5dba7e36f1fb,uuid:8cc12ca3-4692-46e4-81bf-5dba7e36f1fb
Nyawita Gym,https://kf.kobotoolbox.org/api/v2/assets/aaTu2MFuhvnu5NjANoCwa5/data/709336888/attachments/attSAcJXke2qetmuMYfRyepr/,https://kf.kobotoolbox.org/api/v2/assets/aaTu2MFuhvnu5NjANoCwa5/data/709336888/attachments/attRVHRB9hYcKkf3YyHbNZ9f/,-0.00442 34.610205 1537.199951171875 30.801000595092773,-0.00442,34.610205,1537.199951,146,efcd3cb4-9337-4d5f-9446-0efcf2b1c541,uuid:efcd3cb4-9337-4d5f-9446-0efcf2b1c541
Tsavo 4,https://kf.kobotoolbox.org/api/v2/assets/aaTu2MFuhvnu5NjANoCwa5/data/709336927/attachments/att6U58yhWu826GG9cJ3s5hP/,https://kf.kobotoolbox.org/api/v2/assets/aaTu2MFuhvnu5NjANoCwa5/data/709336927/attachments/attAWuXZoFtT34ydgQEpagJY/,-0.004389 34.610179 1537.199951171875 19.07699966430664,-0.004389,34.610179,1537.199951,147,80f696b6-322c-4e96-8523-f6b86ad81d7a,uuid:80f696b6-322c-4e96-8523-f6b86ad81d7a
Nile 01,https://kf.kobotoolbox.org/api/v2/assets/aaTu2MFuhvnu5NjANoCwa5/data/709337434/attachments/attJYdPnVXpPZmSa7hVMiN8J/,https://kf.kobotoolbox.org/api/v2/assets/aaTu2MFuhvnu5NjANoCwa5/data/709337434/attachments/att24P9s3scAYytF7fPpeZUA/,-0.007721 34.592865 1510.0999755859375 30.459999084472656,-0.007721,34.592865,1510.099976,401,ddc94e86-bdae-4540-892a-80da2344f49e,uuid:ddc94e86-bdae-4540-892a-80da2344f49e
Nile 03,https://kf.kobotoolbox.org/api/v2/assets/aaTu2MFuhvnu5NjANoCwa5/data/709337792/attachments/att457qZRRtZ6MCcHz7WAqJC/,https://kf.kobotoolbox.org/api/v2/assets/aaTu2MFuhvnu5NjANoCwa5/data/709337792/attachments/attnqvWdJbjqsxL967kho8DA/,-0.007777 34.592735 1510.0999755859375 32.90599822998047,-0.007777,34.592735,1510.099976,402,9e2f6793-2984-4614-8d54-25a51c189808,uuid:9e2f6793-2984-4614-8d54-25a51c189808
Nile 07/09,https://kf.kobotoolbox.org/api/v2/assets/aaTu2MFuhvnu5NjANoCwa5/data/709338462/attachments/attapp849Rg3j3uWTQoQke2X/,https://kf.kobotoolbox.org/api/v2/assets/aaTu2MFuhvnu5NjANoCwa5/data/709338462/attachments/att9dDMfiWfQsE7WrKYi3ewj/,-0.007046 34.592753 1510.0999755859375 56.83300018310547,-0.007046,34.592753,1510.099976,403,34893d90-5d08-4c68-9bda-4d241656f4b0,uuid:34893d90-5d08-4c68-9bda-4d241656f4b0
Nile 02,https://kf.kobotoolbox.org/api/v2/assets/aaTu2MFuhvnu5NjANoCwa5/data/709338948/attachments/attWvGjKwhRqFRoPcK9GuLtr/,https://kf.kobotoolbox.org/api/v2/assets/aaTu2MFuhvnu5NjANoCwa5/data/709338948/attachments/attxZwMjBjZmh2SJNv6DQ35B/,-0.00773 34.592853 1510.0999755859375 31.805999755859375,-0.00773,34.592853,1510.099976,404,42e04757-b099-4040-a807-8eb46e3b589f,uuid:42e04757-b099-4040-a807-8eb46e3b589f
Nile 04,https://kf.kobotoolbox.org/api/v2/assets/aaTu2MFuhvnu5NjANoCwa5/data/709339575/attachments/attRRiioRCLrWcys6J5fyU3H/,https://kf.kobotoolbox.org/api/v2/assets/aaTu2MFuhvnu5NjANoCwa5/data/709339575/attachments/attrPhyoH9STLANoaEdg2vfF/,-0.0076 34.592643 1510.0999755859375 62.79199981689453,-0.0076,34.592643,1510.099976,405,c5c5cfa0-83d6-407a-b220-4b639774844a,uuid:c5c5cfa0-83d6-407a-b220-4b639774844a
Nile 06,https://kf.kobotoolbox.org/api/v2/assets/aaTu2MFuhvnu5NjANoCwa5/data/709339998/attachments/attJaQ77pPHKTnAAj7hFGtVd/,https://kf.kobotoolbox.org/api/v2/assets/aaTu2MFuhvnu5NjANoCwa5/data/709339998/attachments/attnPiGRTnU7jLgmQ2MdwdXX/,-0.007797 34.592672 1510.5 27.006000518798828,-0.007797,34.592672,1510.5,406,40eb7efb-ec82-4699-9deb-50a4fde89565,uuid:40eb7efb-ec82-4699-9deb-50a4fde89565
Nile 08,https://kf.kobotoolbox.org/api/v2/assets/aaTu2MFuhvnu5NjANoCwa5/data/709340494/attachments/attJL2AmTg7AoL6U36D3NXEH/,https://kf.kobotoolbox.org/api/v2/assets/aaTu2MFuhvnu5NjANoCwa5/data/709340494/attachments/attfVt8BD9VrCwbHLB7NdLyZ/,-0.007133 34.592661 1510.5 41.512001037597656,-0.007133,34.592661,1510.5,406,b6607faa-fb7f-4dd9-9f07-deab59a0c6f7,uuid:b6607faa-fb7f-4dd9-9f07-deab59a0c6f7
Nile 10,https://kf.kobotoolbox.org/api/v2/assets/aaTu2MFuhvnu5NjANoCwa5/data/709340910/attachments/attJ8yg22HSjzEBvtcVei5pG/,https://kf.kobotoolbox.org/api/v2/assets/aaTu2MFuhvnu5NjANoCwa5/data/709340910/attachments/attuciak43ytbDpqjqwxvNhm/,-0.007016 34.592584 1513.699951171875 80.07599639892578,-0.007016,34.592584,1513.699951,407,b5c23538-e665-458c-88cf-fe3fe81d9dda,uuid:b5c23538-e665-458c-88cf-fe3fe81d9dda
Nile 12/14,https://kf.kobotoolbox.org/api/v2/assets/aaTu2MFuhvnu5NjANoCwa5/data/709341297/attachments/attoDoScYvHKV2LQKDyQ8XtS/,https://kf.kobotoolbox.org/api/v2/assets/aaTu2MFuhvnu5NjANoCwa5/data/709341297/attachments/attY7c7hRmuEpareTaprtyjL/,-0.006968 34.592348 1513.699951171875 67.58200073242188,-0.006968,34.592348,1513.699951,408,90239a50-c10c-4ec9-b015-892019e32168,uuid:90239a50-c10c-4ec9-b015-892019e32168
Nile 11,https://kf.kobotoolbox.org/api/v2/assets/aaTu2MFuhvnu5NjANoCwa5/data/709341856/attachments/attvwnkngPghyzrD53hLbLYb/,https://kf.kobotoolbox.org/api/v2/assets/aaTu2MFuhvnu5NjANoCwa5/data/709341856/attachments/attKV2mGvGaCfXuJfxTYS8BU/,-0.007532 34.592549 1510.5 43.65599822998047,-0.007532,34.592549,1510.5,409,66b165c0-fa85-4c29-83ca-95e6c5f7d0ce,uuid:66b165c0-fa85-4c29-83ca-95e6c5f7d0ce
Nile 13/15,https://kf.kobotoolbox.org/api/v2/assets/aaTu2MFuhvnu5NjANoCwa5/data/709342400/attachments/attryG8h2RsCvXP37xQLekQ3/,https://kf.kobotoolbox.org/api/v2/assets/aaTu2MFuhvnu5NjANoCwa5/data/709342400/attachments/attwveEpNgjveWb6rTxf2Fgd/,-0.006685 34.592404 1513.800048828125 94.96700286865234,-0.006685,34.592404,1513.800049,410,2df35460-30ad-4f06-997a-6d8abef76153,uuid:2df35460-30ad-4f06-997a-6d8abef76153
Nile 17/19,https://kf.kobotoolbox.org/api/v2/assets/aaTu2MFuhvnu5NjANoCwa5/data/709343005/attachments/attR7PqazBnLZ5p4UC2vfiVi/,https://kf.kobotoolbox.org/api/v2/assets/aaTu2MFuhvnu5NjANoCwa5/data/709343005/attachments/attyj76Bd4M39cC6Hi9iKVvj/,-0.006624 34.592413 1505.699951171875 24.50200080871582,-0.006624,34.592413,1505.699951,411,625079d8-0f76-4de4-b7a6-930930007e23,uuid:625079d8-0f76-4de4-b7a6-930930007e23
Nile 16/18,https://kf.kobotoolbox.org/api/v2/assets/aaTu2MFuhvnu5NjANoCwa5/data/709344082/attachments/attp65qg9cyxS3YpJ3jShC6B/,https://kf.kobotoolbox.org/api/v2/assets/aaTu2MFuhvnu5NjANoCwa5/data/709344082/attachments/attZvABArqkxq6ZYdEfMngwf/,-0.006488 34.592346 1505.5999755859375 45.32500076293945,-0.006488,34.592346,1505.599976,412,5078753a-55e1-4238-a59d-b8dd2ab6ce3d,uuid:5078753a-55e1-4238-a59d-b8dd2ab6ce3d
Nile 21,https://kf.kobotoolbox.org/api/v2/assets/aaTu2MFuhvnu5NjANoCwa5/data/709344581/attachments/attWrZfbRMR6vS7VWH9Tx424/,https://kf.kobotoolbox.org/api/v2/assets/aaTu2MFuhvnu5NjANoCwa5/data/709344581/attachments/attyEVWeLnfopm3ANt4CKiP8/,-0.006699 34.592407 1505.699951171875 18.391000747680664,-0.006699,34.592407,1505.699951,413,d37e16cb-ca7b-4ea4-aad8-2ebe4caf09d3,uuid:d37e16cb-ca7b-4ea4-aad8-2ebe4caf09d3
Nile 20,https://kf.kobotoolbox.org/api/v2/assets/aaTu2MFuhvnu5NjANoCwa5/data/709345367/attachments/attBCC44bejtb3Vk2SePu2hy/,https://kf.kobotoolbox.org/api/v2/assets/aaTu2MFuhvnu5NjANoCwa5/data/709345367/attachments/attgomHEQR6CyrqyQtWa8opQ/,-0.006508 34.592398 1505.699951171875 24.674999237060547,-0.006508,34.592398,1505.699951,414,bf0a1965-d136-4ee0-8ec1-89c06bdd3b7f,uuid:bf0a1965-d136-4ee0-8ec1-89c06bdd3b7f
Nile 22/24,https://kf.kobotoolbox.org/api/v2/assets/aaTu2MFuhvnu5NjANoCwa5/data/709411327/attachments/attVNBHiX5VapsXWxfEsTgLL/,https://kf.kobotoolbox.org/api/v2/assets/aaTu2MFuhvnu5NjANoCwa5/data/709411327/attachments/attQRtftwoaoXt9fMABJJKAW/,-0.006474 34.592369 1504.199951171875 19.292999267578125,-0.006474,34.592369,1504.199951,415,82322ca3-76ff-4fe6-84ff-25b863bbb056,uuid:82322ca3-76ff-4fe6-84ff-25b863bbb056
Nile 23/25,https://kf.kobotoolbox.org/api/v2/assets/aaTu2MFuhvnu5NjANoCwa5/data/709411381/attachments/attyqWShReEjJGU5TgqnUCJe/,https://kf.kobotoolbox.org/api/v2/assets/aaTu2MFuhvnu5NjANoCwa5/data/709411381/attachments/attw7wpYErAYRJqCM9tvnQrZ/,-0.006622 34.592389 1505.4000244140625 19.288999557495117,-0.006622,34.592389,1505.400024,416,9a5498f5-124c-41a7-b854-cfd4249524b7,uuid:9a5498f5-124c-41a7-b854-cfd4249524b7
